     2.10           OBSERVATION DATA    M (MIXED)           RINEX VERSION / TYPE
RTKCONV 2.4.2                           20200224 224102 UTC PGM / RUN BY / DATE 
log: D:\Repository\glnephexercise\logs\BINR.bin             COMMENT             
format: NVS BINR                                            COMMENT             
                                                            MARKER NAME         
                                                            MARKER NUMBER       
                                                            OBSERVER / AGENCY   
                                                            REC # / TYPE / VERS 
                                                            ANT # / TYPE        
  2846211.9321  2200058.2230  5249424.2393                  APPROX POSITION XYZ 
        0.0000        0.0000        0.0000                  ANTENNA: DELTA H/E/N
     1     1                                                WAVELENGTH FACT L1/2
     4    C1    L1    D1    S1                              # / TYPES OF OBSERV 
  2020     2    10    13    37   47.0000000     GPS         TIME OF FIRST OBS   
  2020     2    10    13    40   37.0000000     GPS         TIME OF LAST OBS    
                                                            END OF HEADER       
 20  2 10 13 37 47.0000000  0 12R 5G 1G 6G10G12G13G15G17G19G24G28G32
 -46471663.651   225342309.435        2896.119          44.000  
 -45787858.836    75223166.880       -1945.997          45.000  
 -45302753.855    77772426.200        3537.637          47.000  
 -44691921.021    80982396.575       -1992.922          46.000  
 -47228377.104    67653183.918        3261.109          53.000  
 -45421966.724    77145907.793       -3910.744          47.000  
 -46206819.967    73021483.056       -3377.236          52.000  
 -48721422.996    59807193.030       -1003.508          57.000  
 -49391750.688    56284584.334         963.911          56.000  
 -49243895.541    57061577.363        1189.330          57.000  
 -46889077.375    69436189.702       -2749.122          49.000  
 -44926583.281    79749212.951        2993.321          48.000  
 20  2 10 13 37 48.0000000  0 12R 5G 1G 6G10G12G13G15G17G19G24G28G32
 -46472204.802   225339413.538        2895.376          44.000  
 -45787487.670    75225112.985       -1946.583          45.000  
 -45303428.289    77768888.594        3537.615          47.000  
 -44691539.341    80984389.779       -1993.499          45.000  
 -47228997.299    67649923.001        3260.929          53.000  
 -45421220.473    77149818.711       -3910.725          47.000  
 -46206176.808    73024860.575       -3377.448          52.000  
 -48721231.787    59808196.732       -1004.109          57.000  
 -49391934.017    56283620.740         963.215          55.000  
 -49244121.553    57060388.345        1188.738          57.000  
 -46888554.421    69438938.754       -2749.314          49.000  
 -44927154.651    79746219.757        2992.991          49.000  
 20  2 10 13 37 49.0000000  0 12R 5G 1G 6G10G12G13G15G17G19G24G28G32
 -46472746.476   225336518.253        2894.863          45.000  
 -45787119.301    75227059.699       -1947.137          45.000  
 -45304101.601    77765351.112        3537.426          47.000  
 -44691159.322    80986383.427       -1993.924          45.000  
 -47229616.924    67646662.333        3260.573          53.000  
 -45420475.870    77153729.704       -3910.882          47.000  
 -46205534.900    73028238.322       -3377.780          52.000  
 -48721040.734    59809200.986       -1004.604          57.000  
 -49392117.245    56282657.846         962.531          55.000  
 -49244348.290    57059199.924        1188.135          57.000  
 -46888031.308    69441687.938       -2749.371          49.000  
 -44927724.405    79743226.918        2992.582          48.000  
 20  2 10 13 37 50.0000000  0 12R 5G 1G 6G10G12G13G15G17G19G24G28G32
 -46473288.368   225333623.605        2894.487          45.000  
 -45786748.566    75229007.028       -1947.386          45.000  
 -45304775.706    77761813.738        3537.229          47.000  
 -44690777.964    80988377.538       -1994.279          45.000  
 -47230236.469    67643401.899        3260.236          53.000  
 -45419732.351    77157640.742       -3911.107          47.000  
 -46204891.959    73031616.284       -3378.196          52.000  
 -48720850.116    59810205.813       -1005.044          57.000  
 -49392300.547    56281695.670         961.858          55.000  
 -49244574.980    57058012.074        1187.541          57.000  
 -46887508.217    69444437.277       -2749.314          49.000  
 -44928293.989    79740234.421        2992.422          49.000  
 20  2 10 13 37 51.0000000  0 12R 5G 1G 6G10G12G13G15G17G19G24G28G32
 -46473830.188   225330729.619        2893.869          45.000  
 -45786377.205    75230955.003       -1948.110          45.000  
 -45305448.253    77758276.448        3537.240          47.000  
 -44690395.955    80990372.101       -1994.753          46.000  
 -47230857.216    67640141.680        3259.982          53.000  
 -45418988.557    77161551.833       -3911.318          47.000  
 -46204248.904    73034994.451       -3378.464          52.000  
 -48720658.762    59811211.218       -1005.592          57.000  
 -49392483.358    56280734.210         961.127          55.000  
 -49244801.148    57056824.794        1186.958          57.000  
 -46886984.643    69447186.768       -2749.372          49.000  
 -44928863.593    79737242.279        2992.115          49.000  
 20  2 10 13 37 52.0000000  0 12R 5G 1G 6G10G12G13G15G17G19G24G28G32
 -46474371.862   225327836.299        2892.928          44.000  
 -45786007.279    75232903.582       -1948.948          45.000  
 -45306120.766    77754739.287        3537.064          47.000  
 -44690016.642    80992367.093       -1995.163          46.000  
 -47231479.261    67636881.694        3259.862          53.000  
 -45418242.926    77165462.963       -3911.084          47.000  
 -46203605.464    73038372.837       -3378.472          53.000  
 -48720466.153    59812217.176       -1006.233          57.000  
 -49392666.079    56279773.457         960.385          55.000  
 -49245026.023    57055638.096        1186.447          57.000  
 -46886460.867    69449936.418       -2749.737          49.000  
 -44929433.213    79734250.508        2991.678          48.000  
 20  2 10 13 37 53.0000000  0 12R 5G 1G 6G10G12G13G15G17G19G24G28G32
 -46474913.173   225324943.593        2892.333          44.000  
 -45785634.547    75234852.744       -1949.579          45.000  
 -45306795.164    77751202.237        3537.005          47.000  
 -44689637.639    80994362.544       -1995.720          46.000  
 -47232100.885    67633621.955        3259.679          53.000  
 -45417500.652    77169374.182       -3911.152          47.000  
 -46202962.110    73041751.466       -3378.634          52.000  
 -48720274.291    59813223.690       -1006.867          57.000  
 -49392849.207    56278813.410         959.699          56.000  
 -49245250.741    57054451.969        1185.869          57.000  
 -46885937.326    69452686.198       -2749.996          49.000  
 -44930000.149    79731259.091        2990.985          49.000  
 20  2 10 13 37 54.0000000  0 12R 5G 1G 6G10G12G13G15G17G19G24G28G32
 -46475454.353   225322051.537        2891.685          44.000  
 -45785264.202    75236802.515       -1950.112          45.000  
 -45307468.435    77747665.287        3536.896          47.000  
 -44689259.342    80996358.440       -1996.151          46.000  
 -47232720.583    67630362.458        3259.408          53.000  
 -45416758.040    77173285.449       -3911.279          47.000  
 -46202318.960    73045130.311       -3378.902          52.000  
 -48720082.864    59814230.759       -1007.376          57.000  
 -49393031.520    56277854.078         958.938          55.000  
 -49245475.483    57053266.408        1185.319          57.000  
 -46885415.134    69455436.100       -2750.033          49.000  
 -44930565.940    79728267.987        2990.968          49.000  
 20  2 10 13 37 56.0000000  0 12R 5G 1G 6G10G12G13G15G17G19G24G28G32
 -46476536.380   225316269.328        2890.725          44.000  
 -45784519.407    75240703.918       -1951.174          45.000  
 -45308815.558    77740591.742        3536.736          47.000  
 -44688497.027    81000351.605       -1996.957          46.000  
 -47233960.549    67623844.168        3258.778          53.000  
 -45415268.376    77181108.163       -3911.568          47.000  
 -46201032.284    73051888.670       -3379.572          52.000  
 -48719701.244    59816246.618       -1008.378          57.000  
 -49393395.836    56275937.532         957.585          55.000  
 -49245928.668    57050897.021        1184.072          57.000  
 -46884369.960    69460936.379       -2750.109          49.000  
 -44931698.433    79722286.893        2990.315          49.000  
 20  2 10 13 37 57.0000000  0 12R 5G 1G 6G10G12G13G15G17G19G24G28G32
 -46477076.746   225313379.191        2889.899          44.000  
 -45784145.708    75242655.541       -1951.832          45.000  
 -45309490.285    77737055.131        3536.591          47.000  
 -44688121.493    81002348.853       -1997.291          46.000  
 -47234580.939    67620585.362        3258.678          53.000  
 -45414524.382    77185019.605       -3911.530          47.000  
 -46200389.873    73055268.172       -3379.633          52.000  
 -48719508.740    59817255.402       -1009.038          57.000  
 -49393577.958    56274980.335         956.823          55.000  
 -49246154.498    57049713.178        1183.588          57.000  
 -46883845.437    69463686.750       -2750.431          49.000  
 -44932269.206    79719296.874        2989.897          49.000  
 20  2 10 13 37 58.0000000  0 12R 5G 1G 6G10G12G13G15G17G19G24G28G32
 -46477616.473   225310489.704        2889.000          44.000  
 -45783774.985    75244607.779       -1952.731          45.000  
 -45310163.231    77733518.636        3536.497          46.000  
 -44687741.868    81004346.576       -1997.954          45.000  
 -47235200.891    67617326.804        3258.502          53.000  
 -45413780.798    77188931.111       -3911.417          47.000  
 -46199747.630    73058647.904       -3379.688          52.000  
 -48719316.105    59818264.737       -1009.707          57.000  
 -49393760.271    56274023.834         956.159          55.000  
 -49246379.325    57048529.888        1183.041          57.000  
 -46883322.486    69466437.258       -2750.779          49.000  
 -44932837.952    79716307.199        2989.514          49.000  
 20  2 10 13 37 59.0000000  0 12R 5G 1G 6G10G12G13G15G17G19G24G28G32
 -46478156.390   225307600.856        2888.466          44.000  
 -45783402.521    75246560.607       -1953.327          45.000  
 -45310835.088    77729982.252        3536.348          47.000  
 -44687362.680    81006344.733       -1998.374          45.000  
 -47235821.195    67614068.486        3258.235          53.000  
 -45413037.073    77192842.688       -3911.519          47.000  
 -46199104.879    73062027.870       -3379.967          52.000  
 -48719123.263    59819274.636       -1010.288          57.000  
 -49393942.511    56273068.054         955.403          55.000  
 -49246603.306    57047347.168        1182.417          57.000  
 -46882799.780    69469187.879       -2750.716          49.000  
 -44933403.646    79713317.864        2989.205          49.000  
 20  2 10 13 38  0.0000000  0 12R 5G 1G 6G10G12G13G15G17G19G24G28G32
 -46478696.830   225304712.671        2887.825          45.000  
 -45783031.966    75248514.041       -1953.798          45.000  
 -45311508.686    77726445.975        3536.160          47.000  
 -44686982.100    81008343.340       -1998.997          45.000  
 -47236439.746    67610810.398        3257.979          54.000  
 -45412291.907    77196754.309       -3911.667          46.000  
 -46198461.185    73065408.053       -3380.252          52.000  
 -48718931.075    59820285.087       -1010.769          57.000  
 -49394124.841    56272112.980         954.724          55.000  
 -49246827.395    57046165.037        1181.854          57.000  
 -46882276.391    69471938.664       -2750.914          49.000  
 -44933971.767    79710328.913        2988.692          49.000  
 20  2 10 13 38  1.0000000  0 12R 5G 1G 6G10G12G13G15G17G19G24G28G32
 -46479236.761   225301825.110        2887.311          45.000  
 -45782658.654    75250468.094       -1954.334          45.000  
 -45312179.963    77722909.794        3536.091          47.000  
 -44686597.549    81010342.386       -1999.312          45.000  
 -47237058.428    67607552.543        3257.701          54.000  
 -45411548.228    77200665.985       -3911.804          46.000  
 -46197817.273    73068788.450       -3380.597          52.000  
 -48718739.394    59821296.111       -1011.308          57.000  
 -49394306.637    56271158.605         953.969          55.000  
 -49247052.559    57044983.493        1181.219          57.000  
 -46881752.681    69474689.577       -2750.966          49.000  
 -44934540.021    79707340.284        2988.446          49.000  
 20  2 10 13 38  2.0000000  0 12R 5G 1G 6G10G12G13G15G17G19G24G28G32
 -46479776.837   225298938.191        2886.728          45.000  
 -45782288.041    75252422.765       -1954.789          46.000  
 -45312849.936    77719373.729        3536.039          47.000  
 -44686215.597    81012341.871       -1999.639          46.000  
 -47237678.261    67604294.924        3257.395          54.000  
 -45410803.846    77204577.712       -3911.831          47.000  
 -46197174.821    73072169.061       -3380.856          52.000  
 -48718546.625    59822307.699       -1011.790          57.000  
 -49394487.825    56270204.947         953.317          55.000  
 -49247277.229    57043802.536        1180.674          57.000  
 -46881230.017    69477440.654       -2750.984          49.000  
 -44935111.141    79704352.027        2988.226          49.000  
 20  2 10 13 38  3.0000000  0 12R 5G 1G 6G10G12G13G15G17G19G24G28G32
 -46480315.824   225296051.914        2886.019          45.000  
 -45781916.099    75254378.051       -1955.515          46.000  
 -45313520.631    77715837.783        3535.897          47.000  
 -44685832.739    81014341.827       -2000.129          46.000  
 -47238299.859    67601037.535        3257.277          54.000  
 -45410060.273    77208489.502       -3911.833          47.000  
 -46196532.991    73075549.891       -3380.966          52.000  
 -48718353.711    59823319.855       -1012.432          57.000  
 -49394669.022    56269252.003         952.598          55.000  
 -49247501.077    57042622.165        1180.120          57.000  
 -46880706.630    69480191.872       -2751.258          49.000  
 -44935681.088    79701364.130        2987.693          49.000  
 20  2 10 13 38  4.0000000  0 12R 5G 1G 6G10G12G13G15G17G19G24G28G32
 -46480856.045   225293166.286        2885.296          45.000  
 -45781544.734    75256333.947       -1956.254          46.000  
 -45314194.631    77712301.950        3535.789          47.000  
 -44685451.958    81016342.233       -2000.796          46.000  
 -47238920.489    67597780.390        3257.054          54.000  
 -45409316.090    77212401.353       -3911.823          47.000  
 -46195889.855    73078930.949       -3381.124          52.000  
 -48718161.377    59824332.570       -1012.990          57.000  
 -49394850.309    56268299.772         951.850          55.000  
 -49247725.734    57041442.369        1179.516          57.000  
 -46880184.106    69482943.244       -2751.469          49.000  
 -44936249.523    79698376.567        2987.434          49.000  
 20  2 10 13 38  5.0000000  0 12R 5G 1G 6G10G12G13G15G17G19G24G28G32
 -46481395.904   225290281.321        2884.552          45.000  
 -45781172.063    75258290.449       -1956.956          46.000  
 -45314865.579    77708766.227        3535.701          47.000  
 -44685071.504    81018343.066       -2000.971          46.000  
 -47239540.115    67594523.486        3256.802          54.000  
 -45408571.537    77216313.275       -3911.978          47.000  
 -46195247.235    73082312.228       -3381.336          52.000  
 -48717969.235    59825345.851       -1013.607          57.000  
 -49395031.225    56267348.250         951.146          55.000  
 -49247949.605    57040263.138        1178.939          57.000  
 -46879661.448    69485694.745       -2751.652          49.000  
 -44936818.862    79695389.362        2987.104          49.000  
 20  2 10 13 38  6.0000000  0 12R 5G 1G 6G10G12G13G15G17G19G24G28G32
 -46481936.489   225287396.995        2883.975          45.000  
 -45780800.856    75260247.530       -1957.311          46.000  
 -45315537.872    77705230.609        3535.577          47.000  
 -44684689.571    81020344.364       -2001.436          46.000  
 -47240159.090    67591266.828        3256.594          54.000  
 -45407827.031    77220225.250       -3911.973          47.000  
 -46194602.838    73085693.736       -3381.592          52.000  
 -48717775.429    59826359.683       -1014.095          57.000  
 -49395211.161    56266397.436         950.487          55.000  
 -49248174.565    57039084.485        1178.401          57.000  
 -46879136.250    69488446.379       -2751.761          49.000  
 -44937391.437    79692402.503        2986.696          49.000  
 20  2 10 13 38  7.0000000  0 12R 5G 1G 6G10G12G13G15G17G19G24G28G32
 -46482476.651   225284513.313        2883.503          45.000  
 -45780428.694    75262205.254       -1957.895          46.000  
 -45316210.708    77701695.097        3535.463          47.000  
 -44684308.837    81022346.118       -2001.970          46.000  
 -47240778.800    67588010.401        3256.190          54.000  
 -45407081.531    77224137.263       -3912.163          47.000  
 -46193958.337    73089075.455       -3381.969          52.000  
 -48717580.494    59827374.076       -1014.612          57.000  
 -49395392.186    56265447.332         949.746          55.000  
 -49248399.439    57037906.397        1177.813          57.000  
 -46878612.009    69491198.164       -2751.701          49.000  
 -44937962.343    79689416.017        2986.332          48.000  
 20  2 10 13 38  8.0000000  0 12R 5G 1G 6G10G12G13G15G17G19G24G28G32
 -46483016.278   225281630.262        2882.809          45.000  
 -45780054.925    75264163.593       -1958.532          46.000  
 -45316883.982    77698159.710        3535.267          47.000  
 -44683929.231    81024348.305       -2002.417          46.000  
 -47241399.987    67584754.191        3256.083          54.000  
 -45406336.207    77228049.335       -3912.141          47.000  
 -46193315.572    73092457.377       -3382.025          52.000  
 -48717386.818    59828389.046       -1015.215          57.000  
 -49395572.485    56264497.946         949.020          55.000  
 -49248624.121    57036728.871        1177.252          57.000  
 -46878086.091    69493950.130       -2752.081          49.000  
 -44938530.017    79686429.886        2985.983          48.000  
 20  2 10 13 38  9.0000000  0 12R 5G 1G 6G10G12G13G15G17G19G24G28G32
 -46483555.569   225278747.848        2881.957          45.000  
 -45779682.170    75266122.521       -1959.246          46.000  
 -45317557.835    77694624.418        3535.253          47.000  
 -44683546.586    81026350.934       -2002.870          46.000  
 -47242020.060    67581498.230        3255.899          53.000  
 -45405593.920    77231961.466       -3912.049          47.000  
 -46192671.747    73095839.536       -3382.201          52.000  
 -48717194.760    59829404.570       -1015.830          57.000  
 -49395752.702    56263549.271         948.341          56.000  
 -49248847.497    57035551.937        1176.674          57.000  
 -46877562.442    69496702.204       -2752.320          50.000  
 -44939101.169    79683444.090        2985.561          48.000  
 20  2 10 13 38 10.0000000  0 12R 5G 1G 6G10G12G13G15G17G19G24G28G32
 -46484093.670   225275866.078        2881.334          45.000  
 -45779312.210    75268082.048       -1959.903          46.000  
 -45318229.911    77691089.249        3535.102          47.000  
 -44683167.461    81028354.020       -2003.253          46.000  
 -47242639.203    67578242.503        3255.685          54.000  
 -45404849.176    77235873.668       -3912.122          47.000  
 -46192027.894    73099221.914       -3382.399          52.000  
 -48717002.549    59830420.648       -1016.384          57.000  
 -49395933.300    56262601.300         947.585          56.000  
 -49249069.990    57034375.599        1176.058          57.000  
 -46877038.548    69499454.417       -2752.300          49.000  
 -44939668.226    79680458.658        2985.213          48.000  
 20  2 10 13 38 11.0000000  0 12R 5G 1G 6G10G12G13G15G17G19G24G28G32
 -46484632.163   225272984.982        2880.775          45.000  
 -45778939.672    75270042.195       -1960.459          46.000  
 -45318903.692    77687554.184        3535.036          47.000  
 -44682787.595    81030357.560       -2003.702          46.000  
 -47243258.250    67574987.026        3255.408          54.000  
 -45404104.300    77239785.925       -3912.251          47.000  
 -46191383.764    73102604.520       -3382.698          52.000  
 -48716808.002    59831437.293       -1016.891          57.000  
 -49396113.028    56261654.043         946.869          56.000  
 -49249293.172    57033199.847        1175.465          58.000  
 -46876515.231    69502206.774       -2752.452          50.000  
 -44940238.596    79677473.563        2984.831          48.000  
 20  2 10 13 38 12.0000000  0 12R 5G 1G 6G10G12G13G15G17G19G24G28G32
 -46485171.149   225270104.547        2880.171          45.000  
 -45778565.709    75272002.962       -1960.970          46.000  
 -45319576.931    77684019.246        3534.879          47.000  
 -44682407.905    81032361.545       -2004.218          46.000  
 -47243878.504    67571731.783        3255.053          54.000  
 -45403360.443    77243698.241       -3912.386          47.000  
 -46190739.467    73105987.345       -3383.039          52.000  
 -48716613.575    59832454.512       -1017.470          57.000  
 -49396293.200    56260707.495         946.221          56.000  
 -49249517.308    57032024.669        1174.905          58.000  
 -46875991.624    69504959.284       -2752.533          50.000  
 -44940806.825    79674488.833        2984.489          47.000  
 20  2 10 13 38 13.0000000  0 12R 5G 1G 6G10G12G13G15G17G19G24G28G32
 -46485709.832   225267224.748        2879.571          45.000  
 -45778191.211    75273964.333       -1961.641          46.000  
 -45320249.694    77680484.405        3534.784          47.000  
 -44682026.516    81034365.981       -2004.736          46.000  
 -47244497.901    67568476.760        3254.861          54.000  
 -45402617.038    77247610.610       -3912.517          47.000  
 -46190095.056    73109370.371       -3383.215          52.000  
 -48716420.951    59833472.286       -1018.019          57.000  
 -49396473.689    56259761.655         945.459          56.000  
 -49249741.446    57030850.031        1174.363          57.000  
 -46875467.537    69507711.943       -2752.699          50.000  
 -44941372.407    79671504.433        2984.387          48.000  
 20  2 10 13 38 14.0000000  0 12R 5G 1G 6G10G12G13G15G17G19G24G28G32
 -46486247.802   225264345.561        2878.906          45.000  
 -45777815.047    75275926.320       -1962.304          46.000  
 -45320922.786    77676949.688        3534.688          47.000  
 -44681644.104    81036370.868       -2005.097          45.000  
 -47245117.891    67565221.986        3254.707          54.000  
 -45401872.413    77251523.026       -3912.438          47.000  
 -46189451.085    73112753.630       -3383.333          52.000  
 -48716228.752    59834490.632       -1018.633          57.000  
 -49396653.752    56258816.529         944.767          56.000  
 -49249965.475    57029675.979        1173.772          58.000  
 -46874944.912    69510464.740       -2752.885          49.000  
 -44941940.846    79668520.435        2983.801          48.000  
 20  2 10 13 38 15.0000000  0 12R 5G 1G 6G10G12G13G15G17G19G24G28G32
 -46486786.571   225261466.997        2878.177          45.000  
 -45777442.160    75277888.904       -1962.941          46.000  
 -45321597.908    77673415.079        3534.491          47.000  
 -44681263.461    81038376.193       -2005.617          45.000  
 -47245736.756    67561967.451        3254.462          54.000  
 -45401126.603    77255435.514       -3912.456          47.000  
 -46188809.155    73116137.117       -3383.568          52.000  
 -48716035.475    59835509.538       -1019.221          57.000  
 -49396834.178    56257872.113         944.056          56.000  
 -49250189.430    57028502.510        1173.203          57.000  
 -46874421.095    69513217.676       -2753.108          50.000  
 -44942505.750    79665536.749        2983.533          48.000  
 20  2 10 13 38 16.0000000  0 12R 5G 1G 6G10G12G13G15G17G19G24G28G32
 -46487325.412   225258589.051        2877.740          45.000  
 -45777070.143    75279851.940       -1963.294          46.000  
 -45322270.018    77669880.577        3534.418          47.000  
 -44680886.011    81040381.984       -2006.047          44.000  
 -47246355.583    67558713.155        3254.177          54.000  
 -45400382.312    77259348.072       -3912.708          47.000  
 -46188166.468    73119520.827       -3383.933          52.000  
 -48715840.213    59836528.995       -1019.665          57.000  
 -49397013.361    56256928.399         943.373          56.000  
 -49250413.060    57027329.613        1172.608          57.000  
 -46873896.680    69515970.739       -2753.001          49.000  
 -44943075.871    79662553.421        2983.136          48.000  
 20  2 10 13 38 17.0000000  0 12R 5G 1G 6G10G12G13G15G17G19G24G28G32
 -46487863.541   225255711.789        2876.690          45.000  
 -45776694.425    75281815.770       -1964.408          46.000  
 -45322940.320    77666346.193        3534.343          47.000  
 -44680504.551    81042388.223       -2006.505          44.000  
 -47246975.114    67555459.086        3254.050          54.000  
 -45399637.570    77263260.658       -3912.450          47.000  
 -46187522.629    73122904.733       -3383.844          52.000  
 -48715645.329    59837549.032       -1020.412          57.000  
 -49397193.724    56255985.399         942.641          56.000  
 -49250635.299    57026157.293        1172.069          57.000  
 -46873374.275    69518723.970       -2753.446          49.000  
 -44943642.423    79659570.458        2982.679          48.000  
 20  2 10 13 38 18.0000000  0 12R 5G 1G 6G10G12G13G15G17G19G24G28G32
 -46488401.643   225252835.170        2876.380          45.000  
 -45776320.184    75283780.181       -1964.682          46.000  
 -45323612.835    77662811.914        3534.222          47.000  
 -44680121.739    81044394.903       -2006.953          44.000  
 -47247594.329    67552205.260        3253.687          54.000  
 -45398893.654    77267173.309       -3912.683          47.000  
 -46186877.121    73126288.870       -3384.328          52.000  
 -48715450.757    59838569.624       -1020.834          57.000  
 -49397372.299    56255043.114         941.940          56.000  
 -49250858.747    57024985.546        1171.485          57.000  
 -46872850.486    69521477.325       -2753.354          49.000  
 -44944206.848    79656587.831        2982.495          49.000  
 20  2 10 13 38 19.0000000  0 12R 5G 1G 6G10G12G13G15G17G19G24G28G32
 -46488939.250   225249959.217        2875.499          45.000  
 -45775947.067    75285745.208       -1965.482          46.000  
 -45324285.953    77659277.761        3534.147          47.000  
 -44679736.127    81046402.015       -2007.394          45.000  
 -47248213.520    67548951.661        3253.517          54.000  
 -45398150.879    77271086.000       -3912.540          47.000  
 -46186232.679    73129673.200       -3384.358          52.000  
 -48715256.972    59839590.779       -1021.510          57.000  
 -49397551.066    56254101.528         941.233          56.000  
 -49251081.494    57023814.358        1170.936          57.000  
 -46872325.651    69524230.835       -2753.652          49.000  
 -44944773.662    79653605.569        2982.113          49.000  
 20  2 10 13 38 20.0000000  0 12R 5G 1G 6G10G12G13G15G17G19G24G28G32
 -46489477.728   225247083.935        2874.596          45.000  
 -45775576.041    75287710.848       -1966.241          46.000  
 -45324959.041    77655743.701        3534.029          47.000  
 -44679353.286    81048409.583       -2007.939          45.000  
 -47248832.771    67545698.298        3253.389          54.000  
 -45397405.347    77274998.743       -3912.460          47.000  
 -46185588.499    73133057.751       -3384.386          52.000  
 -48715063.042    59840612.502       -1022.147          57.000  
 -49397729.787    56253160.664         940.500          56.000  
 -49251303.805    57022643.736        1170.339          57.000  
 -46871800.950    69526984.503       -2753.992          49.000  
 -44945340.857    79650623.679        2981.552          49.000  
 20  2 10 13 38 21.0000000  0 12R 5G 1G 6G10G12G13G15G17G19G24G28G32
 -46490015.698   225244209.264        2874.121          45.000  
 -45775201.727    75289677.058       -1966.712          46.000  
 -45325631.883    77652209.755        3534.011          47.000  
 -44678966.927    81050417.594       -2008.273          45.000  
 -47249452.168    67542445.188        3253.122          53.000  
 -45396659.866    77278911.580       -3912.665          47.000  
 -46184945.000    73136442.554       -3384.775          52.000  
 -48714867.857    59841634.776       -1022.677          57.000  
 -49397908.172    56252220.514         939.781          56.000  
 -49251526.806    57021473.686        1169.795          58.000  
 -46871275.353    69529738.278       -2754.012          49.000  
 -44945906.175    79647642.111        2981.220          49.000  
 20  2 10 13 38 22.0000000  0 12R 5G 1G 6G10G12G13G15G17G19G24G28G32
 -46490553.827   225241335.237        2873.670          45.000  
 -45774827.569    75291643.888       -1967.229          46.000  
 -45326304.326    77648675.941        3533.706          47.000  
 -44678584.942    81052426.037       -2008.593          45.000  
 -47250072.593    67539192.308        3252.771          54.000  
 -45395916.786    77282824.466       -3912.911          47.000  
 -46184302.779    73139827.562       -3384.995          52.000  
 -48714672.958    59842657.608       -1023.183          57.000  
 -49398087.128    56251281.069         939.115          56.000  
 -49251749.335    57020304.217        1169.200          57.000  
 -46870752.362    69532492.213       -2754.105          50.000  
 -44946472.386    79644660.895        2981.045          49.000  
 20  2 10 13 38 23.0000000  0 12R 5G 1G 6G10G12G13G15G17G19G24G28G32
 -46491090.403   225238461.852        2873.171          45.000  
 -45774453.895    75293611.319       -1967.652          46.000  
 -45326975.816    77645142.227        3533.645          47.000  
 -44678204.853    81054434.949       -2009.109          45.000  
 -47250690.623    67535939.663        3252.455          54.000  
 -45395171.229    77286737.390       -3913.127          47.000  
 -46183659.289    73143212.791       -3385.447          52.000  
 -48714478.992    59843681.007       -1023.635          57.000  
 -49398266.057    56250342.344         938.397          56.000  
 -49251971.089    57019135.332        1168.574          57.000  
 -46870227.154    69535246.274       -2754.017          49.000  
 -44947040.583    79641680.044        2980.757          49.000  
 20  2 10 13 38 24.0000000  0 12R 5G 1G 6G10G12G13G15G17G19G24G28G32
 -46491627.138   225235589.096        2872.416          45.000  
 -45774080.633    75295579.381       -1968.440          46.000  
 -45327648.468    77641608.624        3533.641          47.000  
 -44677823.739    81056444.322       -2009.741          45.000  
 -47251308.520    67532687.267        3252.255          53.000  
 -45394424.581    77290650.379       -3913.022          47.000  
 -46183013.636    73146598.228       -3385.518          52.000  
 -48714283.491    59844704.974       -1024.255          57.000  
 -49398444.288    56249404.335         937.657          56.000  
 -49252192.506    57017967.024        1167.973          57.000  
 -46869702.899    69538000.502       -2754.205          49.000  
 -44947605.907    79638699.549        2980.367          49.000  
 20  2 10 13 38 25.0000000  0 12R 5G 1G 6G10G12G13G15G17G19G24G28G32
 -46492165.326   225232716.937        2872.338          45.000  
 -45773708.181    75297548.008       -1968.526          46.000  
 -45328321.056    77638075.149        3533.336          47.000  
 -44677439.643    81058454.108       -2009.883          44.000  
 -47251927.204    67529435.107        3251.772          54.000  
 -45393678.970    77294563.426       -3913.462          47.000  
 -46182366.537    73149983.906       -3386.237          52.000  
 -48714088.084    59845729.484       -1024.523          57.000  
 -49398621.866    56248467.022         936.960          56.000  
 -49252414.600    57016799.317        1167.400          57.000  
 -46869177.874    69540754.829       -2753.920          49.000  
 -44948173.745    79635719.391        2980.334          49.000  
 20  2 10 13 38 26.0000000  0 12R 5G 1G 6G10G12G13G15G17G19G24G28G32
 -46492702.438   225229845.469        2872.127          45.000  
 -45773334.229    75299517.298       -1968.499          46.000  
 -45328992.807    77634541.773        3533.220          47.000  
 -44677060.415    81060464.363       -2010.144          45.000  
 -47252546.020    67526183.171        3251.293          54.000  
 -45392935.013    77298476.524       -3913.969          47.000  
 -46181722.220    73153369.768       -3386.779          52.000  
 -48713893.200    59846754.582       -1024.806          57.000  
 -49398800.896    56247530.430         936.289          56.000  
 -49252638.326    57015632.179        1166.849          57.000  
 -46868654.228    69543509.354       -2753.745          49.000  
 -44948743.474    79632739.612        2980.094          48.000  
 20  2 10 13 38 27.0000000  0 12R 5G 1G 6G10G12G13G15G17G19G24G28G32
 -46493239.450   225226974.872        2868.869          45.000  
 -45772957.037    75301487.388       -1971.597          46.000  
 -45329667.054    77631008.485        3533.589          46.000  
 -44676680.312    81062475.093       -2011.041          45.000  
 -47253166.408    67522931.369        3252.420          54.000  
 -45392189.998    77302389.504       -3911.923          47.000  
 -46181079.316    73156755.697       -3384.927          52.000  
 -48713698.555    59847780.359       -1026.842          57.000  
 -49398979.163    56246594.557         935.471          56.000  
 -49252861.290    57014465.587        1166.438          57.000  
 -46868130.878    69546264.185       -2756.024          49.000  
 -44949309.850    79629760.278        2978.587          49.000  
 20  2 10 13 38 28.0000000  0 12R 5G 1G 6G10G12G13G15G17G19G24G28G32
 -46493776.186   225224104.651        2868.173          45.000  
 -45772580.774    75303457.817       -1972.686          46.000  
 -45330340.802    77627475.359        3533.383          47.000  
 -44676297.354    81064486.231       -2011.642          44.000  
 -47253785.624    67519679.957        3252.165          53.000  
 -45391442.945    77306302.777       -3911.815          47.000  
 -46180435.999    73160142.064       -3384.824          50.000  
 -48713504.454    59848806.524       -1027.421          57.000  
 -49399157.575    56245659.377         934.799          56.000  
 -49253082.609    57013299.601        1165.791          57.000  
 -46867608.424    69549018.906       -2756.312          49.000  
 -44949875.342    79626781.184        2978.042          48.000  
 20  2 10 13 38 29.0000000  0 12R 5G 1G 6G10G12G13G15G17G19G24G28G32
 -46494313.502   225221235.008        2869.296          45.000  
 -45772202.953    75305428.722       -1971.354          47.000  
 -45331014.219    77623942.349        3533.049          46.000  
 -44675914.137    81066497.798       -2011.795          44.000  
 -47254403.811    67516428.817        3251.129          53.000  
 -45390699.115    77310216.166       -3913.233          47.000  
 -46179791.268    73163528.760       -3386.798          51.000  
 -48713309.222    59849833.214       -1027.030          57.000  
 -49399335.244    56244724.912         934.122          56.000  
 -49253303.216    57012134.193        1165.152          57.000  
 -46867084.026    69551773.705       -2755.043          49.000  
 -44950446.101    79623802.371        2978.644          48.000  
 20  2 10 13 38 30.0000000  0 12R 5G 1G 6G10G12G13G15G17G19G24G28G32
 -46494850.323   225218366.177        2869.792          45.000  
 -45771828.481    75307400.445       -1970.566          46.000  
 -45331686.911    77620409.427        3532.613          46.000  
 -44675533.503    81068509.847       -2012.000          44.000  
 -47255021.357    67513177.836        3250.125          54.000  
 -45389953.800    77314129.487       -3914.407          47.000  
 -46179147.516    73166915.489       -3388.015          52.000  
 -48713113.681    59850860.564       -1026.877          57.000  
 -49399513.574    56243791.169         933.445          56.000  
 -49253523.665    57010969.345        1164.513          58.000  
 -46866559.691    69554528.792       -2753.925          49.000  
 -44951015.439    79620824.017        2978.920          48.000  
 20  2 10 13 38 31.0000000  0 12R 5G 1G 6G10G12G13G15G17G19G24G28G32
 -46495386.174   225215498.082        2868.364          45.000  
 -45771454.553    75309372.895       -1972.095          47.000  
 -45332359.062    77616876.594        3532.730          46.000  
 -44675153.376    81070522.337       -2012.603          44.000  
 -47255639.666    67509927.010        3250.396          54.000  
 -45389209.398    77318042.753       -3913.793          47.000  
 -46178501.587    73170302.341       -3387.440          52.000  
 -48712917.730    59851888.541       -1027.873          57.000  
 -49399690.853    56242858.130         932.652          56.000  
 -49253745.444    57009805.060        1163.991          58.000  
 -46866034.093    69557284.113       -2754.836          49.000  
 -44951582.586    79617846.088        2978.095          48.000  
 20  2 10 13 38 32.0000000  0 12R 5G 1G 6G10G12G13G15G17G19G24G28G32
 -46495922.473   225212630.574        2866.612          45.000  
 -45771077.288    75311345.872       -1973.952          47.000  
 -45333030.443    77613343.890        3532.724          46.000  
 -44674767.698    81072535.291       -2013.167          44.000  
 -47256260.368    67506676.468        3250.770          54.000  
 -45388465.616    77321956.132       -3912.856          47.000  
 -46177855.171    73173689.475       -3386.750          53.000  
 -48712721.493    59852917.043       -1029.174          57.000  
 -49399867.778    56241925.801         931.960          56.000  
 -49253968.263    57008641.356        1163.442          57.000  
 -46865510.520    69560039.532       -2756.088          49.000  
 -44952150.414    79614868.475        2977.022          47.000  
 20  2 10 13 38 33.0000000  0 12R 5G 1G 6G10G12G13G15G17G19G24G28G32
 -46496459.439   225209763.635        2865.741          45.000  
 -45770700.555    75313319.347       -1974.653          47.000  
 -45333702.162    77609811.319        3532.707          46.000  
 -44674378.370    81074548.664       -2013.676          44.000  
 -47256879.269    67503426.220        3250.651          54.000  
 -45387722.545    77325869.643       -3912.655          47.000  
 -46177210.846    73177076.899       -3386.701          52.000  
 -48712525.008    59853946.047       -1029.839          57.000  
 -49400045.247    56240994.182         931.231          56.000  
 -49254190.804    57007478.205        1162.938          57.000  
 -46864985.888    69562795.000       -2756.400          49.000  
 -44952719.599    79611891.136        2976.726          47.000  
 20  2 10 13 38 34.0000000  0 12R 5G 1G 6G10G12G13G15G17G19G24G28G32
 -46496996.452   225206897.309        2865.958          45.000  
 -45770324.426    75315293.392       -1974.385          47.000  
 -45334375.392    77606278.875        3532.387          46.000  
 -44673991.997    81076562.461       -2013.898          44.000  
 -47257496.357    67500176.231        3249.941          54.000  
 -45386979.114    77329783.257       -3913.516          47.000  
 -46176566.695    73180464.589       -3387.759          52.000  
 -48712329.025    59854975.578       -1029.843          57.000  
 -49400222.154    56240063.264         930.560          55.000  
 -49254412.378    57006315.648        1162.279          57.000  
 -46864461.995    69565550.564       -2755.728          49.000  
 -44953285.750    79608914.152        2976.749          47.000  
 20  2 10 13 38 35.0000000  0 12R 5G 1G 6G10G12G13G15G17G19G24G28G32
 -46497532.243   225204031.683        2866.040          45.000  
 -45769950.317    75317268.137       -1974.283          47.000  
 -45335048.053    77602746.526        3532.139          46.000  
 -44673608.206    81078576.751       -2014.452          44.000  
 -47258112.972    67496926.441        3249.263          54.000  
 -45386233.495    77333696.860       -3914.205          47.000  
 -46175922.348    73183852.419       -3388.533          52.000  
 -48712132.457    59856005.724       -1030.012          57.000  
 -49400398.363    56239133.067         929.871          56.000  
 -49254632.452    57005153.660        1161.658          57.000  
 -46863938.132    69568306.351       -2755.270          49.000  
 -44953853.556    79605937.561        2976.874          47.000  
 20  2 10 13 38 36.0000000  0 12R 5G 1G 6G10G12G13G15G17G19G24G28G32
 -46498068.338   225201166.740        2865.416          45.000  
 -45769575.700    75319243.543       -1974.856          47.000  
 -45335720.668    77599214.274        3532.076          46.000  
 -44673222.979    81080591.466       -2014.852          45.000  
 -47258730.324    67493676.847        3249.076          54.000  
 -45385488.984    77337610.458       -3914.177          47.000  
 -46175277.384    73187240.413       -3388.653          53.000  
 -48711936.532    59857036.478       -1030.637          57.000  
 -49400575.042    56238203.586         929.138          56.000  
 -49254853.506    57003992.260        1161.089          58.000  
 -46863414.568    69571062.358       -2755.606          49.000  
 -44954418.439    79602961.377        2976.397          47.000  
 20  2 10 13 38 37.0000000  0 12R 5G 1G 6G10G12G13G15G17G19G24G28G32
 -46498604.056   225198302.419        2863.968          45.000  
 -45769199.040    75321219.555       -1976.198          47.000  
 -45336392.054    77595682.160        3532.031          46.000  
 -44672840.239    81082606.632       -2015.355          45.000  
 -47259349.032    67490427.504        3249.169          54.000  
 -45384744.001    77341524.120       -3913.765          47.000  
 -46174632.042    73190628.640       -3388.385          53.000  
 -48711740.378    59858067.768       -1031.527          57.000  
 -49400752.112    56237274.805         928.405          55.000  
 -49255074.390    57002831.419        1160.568          57.000  
 -46862889.365    69573818.460       -2756.188          49.000  
 -44954985.304    79599985.510        2975.717          47.000  
 20  2 10 13 38 38.0000000  0 12R 5G 1G 6G10G12G13G15G17G19G24G28G32
 -46499139.253   225195438.704        2862.819          45.000  
 -45768822.318    75323196.123       -1977.461          47.000  
 -45337062.787    77592150.151        3532.016          46.000  
 -44672461.157    81084622.242       -2015.865          45.000  
 -47259968.211    67487178.418        3249.277          54.000  
 -45383999.340    77345437.868       -3913.230          47.000  
 -46173987.478    73194017.116       -3388.108          52.000  
 -48711544.054    59859099.609       -1032.434          57.000  
 -49400928.992    56236346.740         927.670          56.000  
 -49255294.923    57001671.149        1160.023          57.000  
 -46862365.070    69576574.691       -2756.785          49.000  
 -44955548.068    79597010.003        2974.966          48.000  
 20  2 10 13 38 39.0000000  0 12R 5G 1G 6G10G12G13G15G17G19G24G28G32
 -46499674.245   225192575.641        2862.395          45.000  
 -45768446.383    75325173.269       -1977.932          47.000  
 -45337732.580    77588618.263        3531.878          46.000  
 -44672080.603    81086638.287       -2016.231          45.000  
 -47260586.108    67483929.595        3248.959          54.000  
 -45383255.476    77349351.711       -3913.462          47.000  
 -46173343.362    73197405.849       -3388.476          52.000  
 -48711347.341    59860131.989       -1032.914          57.000  
 -49401105.491    56235419.390         926.988          56.000  
 -49255515.408    57000511.447        1159.480          57.000  
 -46861838.917    69579331.025       -2756.792          49.000  
 -44956112.645    79594034.815        2974.722          48.000  
 20  2 10 13 38 40.0000000  0 12R 5G 1G 6G10G12G13G15G17G19G24G28G32
 -46500209.382   225189713.256        2862.237          45.000  
 -45768071.089    75327150.991       -1977.930          47.000  
 -45338402.658    77585086.504        3531.617          47.000  
 -44671697.407    81088654.793       -2016.660          45.000  
 -47261204.634    67480681.008        3248.383          54.000  
 -45382510.452    77353265.621       -3914.076          47.000  
 -46172697.956    73200794.804       -3389.210          52.000  
 -48711151.695    59861164.917       -1033.109          57.000  
 -49401281.735    56234492.747         926.276          56.000  
 -49255735.615    56999352.331        1158.812          57.000  
 -46861313.679    69582087.486       -2756.382          49.000  
 -44956675.814    79591059.975        2974.798          48.000  
 20  2 10 13 38 41.0000000  0 12R 5G 1G 6G10G12G13G15G17G19G24G28G32
 -46500744.751   225186851.593        2861.909          46.000  
 -45767693.642    75329129.390       -1978.110          47.000  
 -45339074.403    77581554.832        3531.528          47.000  
 -44671312.528    81090671.729       -2017.091          45.000  
 -47261822.725    67477432.622        3247.973          54.000  
 -45381765.453    77357179.501       -3914.322          47.000  
 -46172053.050    73204183.900       -3389.628          52.000  
 -48710956.070    59862198.454       -1033.475          57.000  
 -49401457.962    56233566.811         925.603          55.000  
 -49255956.161    56998193.798        1158.261          58.000  
 -46860789.714    69584844.151       -2756.285          49.000  
 -44957241.509    79588085.536        2974.584          48.000  
 20  2 10 13 38 42.0000000  0 12R 5G 1G 6G10G12G13G15G17G19G24G28G32
 -46501280.020   225183990.559        2860.978          46.000  
 -45767316.244    75331108.417       -1979.101          47.000  
 -45339746.296    77578023.275        3531.475          47.000  
 -44670927.975    81092689.134       -2017.712          45.000  
 -47262440.694    67474184.472        3247.886          54.000  
 -45381022.061    77361093.430       -3914.055          47.000  
 -46171408.209    73207573.212       -3389.578          53.000  
 -48710759.481    59863232.574       -1034.269          57.000  
 -49401634.605    56232641.594         924.852          55.000  
 -49256176.368    56997035.827        1157.678          58.000  
 -46860264.173    69587600.959       -2756.586          49.000  
 -44957806.552    79585111.474        2974.003          48.000  
 20  2 10 13 38 43.0000000  0 12R 5G 1G 6G10G12G13G15G17G19G24G28G32
 -46501814.589   225181130.119        2859.918          46.000  
 -45766938.374    75333088.039       -1980.236          47.000  
 -45340417.398    77574491.843        3531.323          47.000  
 -44670541.601    81094706.948       -2017.943          45.000  
 -47263058.386    67470936.560        3247.931          54.000  
 -45380277.623    77365007.427       -3913.746          47.000  
 -46170762.578    73210962.753       -3389.448          52.000  
 -48710562.079    59864267.227       -1035.108          57.000  
 -49401811.113    56231717.077         924.125          56.000  
 -49256396.611    56995878.442        1157.143          58.000  
 -46859737.890    69590357.903       -2757.181          50.000  
 -44958372.079    79582137.731        2973.423          48.000  
 20  2 10 13 38 44.0000000  0 12R 5G 1G 6G10G12G13G15G17G19G24G28G32
 -46502349.436   225178270.288        2859.007          46.000  
 -45766562.076    75335068.236       -1981.125          47.000  
 -45341090.091    77570960.516        3531.371          47.000  
 -44670161.800    81096725.222       -2018.257          44.000  
 -47263676.174    67467688.913        3247.814          54.000  
 -45379533.052    77368921.516       -3913.629          47.000  
 -46170118.412    73214352.544       -3389.450          52.000  
 -48710364.884    59865302.435       -1035.802          57.000  
 -49401986.795    56230793.279         923.396          56.000  
 -49256616.710    56994721.658        1156.535          58.000  
 -46859212.569    69593114.964       -2757.608          50.000  
 -44958935.566    79579164.338        2972.991          48.000  
 20  2 10 13 38 45.0000000  0 12R 5G 1G 6G10G12G13G15G17G19G24G28G32
 -46502884.428   225175411.071        2858.552          46.000  
 -45766183.807    75337048.971       -1981.557          47.000  
 -45341760.932    77567429.328        3531.253          47.000  
 -44669779.200    81098743.974       -2018.878          44.000  
 -47264296.018    67464441.536        3247.498          53.000  
 -45378786.776    77372835.719       -3913.994          47.000  
 -46169473.492    73217742.605       -3389.808          52.000  
 -48710167.859    59866338.178       -1036.277          57.000  
 -49402161.816    56229870.192         922.731          56.000  
 -49256837.013    56993565.455        1155.959          57.000  
 -46858687.776    69595872.105       -2757.607          50.000  
 -44959500.168    79576191.281        2972.723          49.000  
 20  2 10 13 38 46.0000000  0 12R 5G 1G 6G10G12G13G15G17G19G24G28G32
 -46503419.420   225172552.585        2858.783          46.000  
 -45765805.622    75339030.372       -1981.033          47.000  
 -45342432.208    77563898.249        3530.917          47.000  
 -44669396.250    81100763.155       -2019.258          44.000  
 -47264916.105    67461194.364        3246.763          53.000  
 -45378041.656    77376749.922       -3914.769          47.000  
 -46168829.848    73221132.832       -3390.875          52.000  
 -48709971.146    59867374.500       -1036.231          57.000  
 -49402336.745    56228947.818         922.044          55.000  
 -49257056.652    56992409.844        1155.299          57.000  
 -46858163.073    69598629.445       -2756.925          50.000  
 -44960065.687    79573218.604        2972.842          49.000  
 20  2 10 13 38 47.0000000  0 12R 5G 1G 6G10G12G13G15G17G19G24G28G32
 -46503954.776   225169694.828        2857.952          46.000  
 -45765428.224    75341012.472       -1981.820          47.000  
 -45343104.467    77560367.268        3530.938          47.000  
 -44669005.951    81102782.787       -2019.886          44.000  
 -47265532.768    67457947.394        3246.582          54.000  
 -45377299.202    77380664.115       -3914.657          47.000  
 -46168184.935    73224523.205       -3390.865          52.000  
 -48709773.323    59868411.433       -1036.883          57.000  
 -49402511.484    56228026.165         921.297          56.000  
 -49257276.883    56991254.792        1154.754          57.000  
 -46857639.398    69601386.984       -2757.083          50.000  
 -44960632.972    79570246.334        2972.277          49.000  
 20  2 10 13 38 48.0000000  0 12R 5G 1G 6G10G12G13G15G17G19G24G28G32
 -46504489.392   225166837.715        2856.207          46.000  
 -45765051.611    75342995.166       -1983.466          47.000  
 -45343776.863    77556836.416        3530.869          47.000  
 -44668620.890    81104802.851       -2020.265          45.000  
 -47266149.371    67454700.666        3246.881          54.000  
 -45376554.289    77384578.361       -3913.834          46.000  
 -46167540.537    73227913.808       -3390.311          52.000  
 -48709574.749    59869448.928       -1038.120          57.000  
 -49402686.241    56227105.228         920.556          55.000  
 -49257496.486    56990100.314        1154.252          58.000  
 -46857114.773    69604144.659       -2758.156          49.000  
 -44961198.399    79567274.382        2971.587          49.000  
 20  2 10 13 38 49.0000000  0 12R 5G 1G 6G10G12G13G15G17G19G24G28G32
 -46505024.033   225163981.094        2855.499          46.000  
 -45764672.508    75344978.325       -1984.318          47.000  
 -45344449.849    77553305.680        3530.775          47.000  
 -44668237.730    81106823.368       -2020.821          45.000  
 -47266768.067    67451454.231        3246.756          53.000  
 -45375808.751    77388492.759       -3913.743          46.000  
 -46166895.486    73231304.706       -3390.204          52.000  
 -48709376.212    59870486.895       -1038.757          57.000  
 -49402861.888    56226184.983         919.840          56.000  
 -49257715.677    56988946.423        1153.679          58.000  
 -46856589.903    69606902.365       -2758.481          49.000  
 -44961762.468    79564302.772        2970.981          48.000  
 20  2 10 13 38 50.0000000  0 12R 5G 1G 6G10G12G13G15G17G19G24G28G32
 -46505558.867   225161125.134        2855.759          45.000  
 -45764296.053    75346962.106       -1983.835          47.000  
 -45345122.033    77549775.068        3530.499          47.000  
 -44667851.777    81108844.307       -2021.126          45.000  
 -47267386.653    67448208.037        3245.972          53.000  
 -45375063.473    77392407.215       -3914.617          46.000  
 -46166250.246    73234695.833       -3391.391          52.000  
 -48709179.064    59871525.438       -1038.745          57.000  
 -49403037.443    56225265.459         919.192          55.000  
 -49257934.469    56987793.112        1153.034          58.000  
 -46856066.142    69609660.225       -2757.790          50.000  
 -44962331.720    79561331.504        2971.077          48.000  
 20  2 10 13 38 51.0000000  0 12R 5G 1G 6G10G12G13G15G17G19G24G28G32
 -46506092.262   225158269.891        2855.386          45.000  
 -45763919.864    75348946.568       -1984.232          47.000  
 -45345795.457    77546244.555        3530.435          47.000  
 -44667464.939    81110865.700       -2021.532          45.000  
 -47268004.635    67444962.046        3245.587          54.000  
 -45374319.462    77396321.666       -3914.897          46.000  
 -46165604.687    73238087.109       -3391.832          52.000  
 -48708981.469    59872564.588       -1039.151          57.000  
 -49403212.916    56224346.655         918.458          56.000  
 -49258153.334    56986640.392        1152.381          58.000  
 -46855541.920    69612418.276       -2757.607          50.000  
 -44962899.039    79558360.613        2970.981          48.000  
 20  2 10 13 38 52.0000000  0 12R 5G 1G 6G10G12G13G15G17G19G24G28G32
 -46506626.250   225155415.346        2854.415          45.000  
 -45763544.787    75350931.671       -1985.184          47.000  
 -45346468.693    77542714.157        3530.307          47.000  
 -44667079.544    81112887.542       -2021.911          45.000  
 -47268622.665    67441716.274        3245.535          53.000  
 -45373574.808    77400236.147       -3914.664          46.000  
 -46164958.903    73241478.575       -3391.749          52.000  
 -48708784.263    59873604.305       -1039.837          57.000  
 -49403387.837    56223428.557         917.748          55.000  
 -49258373.081    56985488.232        1151.873          58.000  
 -46855016.567    69615176.507       -2758.161          50.000  
 -44963464.023    79555390.100        2970.563          48.000  
 20  2 10 13 38 53.0000000  0 12R 5G 1G 6G10G12G13G15G17G19G24G28G32
 -46507159.922   225152561.445        2853.383          45.000  
 -45763167.123    75352917.356       -1986.196          47.000  
 -45347140.765    77539183.886        3530.222          47.000  
 -44666697.327    81114909.838       -2022.480          45.000  
 -47269240.490    67438470.749        3245.492          53.000  
 -45372830.714    77404150.682       -3914.220          46.000  
 -46164313.685    73244870.278       -3391.686          52.000  
 -48708586.778    59874644.581       -1040.699          57.000  
 -49403562.385    56222511.172         917.023          56.000  
 -49258593.445    56984336.642        1151.315          58.000  
 -46854492.059    69617934.857       -2758.506          49.000  
 -44964030.697    79552419.955        2969.864          48.000  
 20  2 10 13 38 54.0000000  0 12R 5G 1G 6G10G12G13G15G17G19G24G28G32
 -46507693.316   225149708.155        2852.757          45.000  
 -45762789.447    75354903.606       -1986.734          47.000  
 -45347812.546    77535653.735        3530.048          47.000  
 -44666316.417    81116932.555       -2022.890          45.000  
 -47269857.552    67435225.487        3245.289          53.000  
 -45372085.593    77408065.317       -3914.396          46.000  
 -46163667.909    73248262.226       -3391.887          52.000  
 -48708389.111    59875685.387       -1041.200          57.000  
 -49403736.553    56221594.507         916.271          55.000  
 -49258812.588    56983185.623        1150.730          58.000  
 -46853967.293    69620693.330       -2758.811          50.000  
 -44964596.015    79549450.137        2969.565          48.000  
 20  2 10 13 38 55.0000000  0 12R 5G 1G 6G10G12G13G15G17G19G24G28G32
 -46508227.146   225146855.505        2852.361          45.000  
 -45762409.472    75356890.458       -1987.042          47.000  
 -45348484.112    77532123.701        3529.950          47.000  
 -44665933.656    81118955.735       -2023.478          45.000  
 -47270473.430    67431980.463        3244.933          54.000  
 -45371339.442    77411980.009       -3914.791          46.000  
 -46163022.227    73251654.379       -3392.298          52.000  
 -48708190.874    59876726.747       -1041.626          57.000  
 -49403911.437    56220678.522         915.636          55.000  
 -49259030.993    56982035.197        1150.151          58.000  
 -46853443.870    69623451.926       -2758.842          50.000  
 -44965161.354    79546480.675        2969.226          48.000  
 20  2 10 13 38 56.0000000  0 12R 5G 1G 6G10G12G13G15G17G19G24G28G32
 -46508760.771   225144003.501        2851.837          45.000  
 -45762030.466    75358877.954       -1987.683          47.000  
 -45349156.481    77528593.777        3529.843          47.000  
 -44665547.420    81120979.367       -2023.924          45.000  
 -47271089.706    67428735.681        3244.551          54.000  
 -45370595.648    77415894.725       -3914.891          46.000  
 -46162376.326    73255046.739       -3392.586          52.000  
 -48707992.253    59877768.684       -1042.110          57.000  
 -49404085.759    56219763.268         914.905          56.000  
 -49259248.890    56980885.347        1149.559          57.000  
 -46852919.420    69626210.659       -2758.656          49.000  
 -44965727.006    79543511.563        2969.156          48.000  
 20  2 10 13 38 57.0000000  0 12R 5G 1G 6G10G12G13G15G17G19G24G28G32
 -46509294.601   225141152.151        2851.143          46.000  
 -45761652.099    75360866.040       -1988.282          47.000  
 -45349828.808    77525063.965        3529.799          47.000  
 -44665161.417    81123003.428       -2024.398          45.000  
 -47271707.398    67425491.121        3244.394          54.000  
 -45369850.808    77419809.486       -3914.795          46.000  
 -46161730.876    73258439.311       -3392.817          52.000  
 -48707793.509    59878811.188       -1042.714          57.000  
 -49404259.156    56218848.721         914.216          55.000  
 -49259467.574    56979736.067        1148.994          58.000  
 -46852394.440    69628969.573       -2758.955          49.000  
 -44966291.003    79540542.828        2968.598          48.000  
 20  2 10 13 38 58.0000000  0 12R 5G 1G 6G10G12G13G15G17G19G24G28G32
 -46509827.982   225138301.464        2850.332          46.000  
 -45761273.854    75362854.746       -1989.012          47.000  
 -45350500.922    77521534.281        3529.645          47.000  
 -44664779.904    81125027.941       -2024.777          45.000  
 -47272324.957    67422246.805        3244.232          54.000  
 -45369105.130    77423724.312       -3914.787          46.000  
 -46161084.838    73261832.122       -3392.912          52.000  
 -48707594.416    59879854.248       -1043.340          57.000  
 -49404433.232    56217934.892         913.472          56.000  
 -49259686.983    56978587.385        1148.394          58.000  
 -46851868.868    69631728.609       -2759.119          49.000  
 -44966856.088    79537574.462        2968.044          48.000  
 20  2 10 13 38 59.0000000  0 12R 5G 1G 6G10G12G13G15G17G19G24G28G32
 -46510361.316   225135451.411        2849.759          46.000  
 -45760895.549    75364844.029       -1989.627          47.000  
 -45351170.311    77518004.714        3529.516          47.000  
 -44664396.665    81127052.873       -2025.076          44.000  
 -47272942.092    67419002.743        3243.997          54.000  
 -45368358.877    77427639.204       -3914.977          46.000  
 -46160438.895    73265225.149       -3393.073          52.000  
 -48707396.169    59880897.863       -1043.922          57.000  
 -49404607.201    56217021.769         912.781          55.000  
 -49259906.500    56977439.274        1147.848          58.000  
 -46851342.691    69634487.787       -2759.383          50.000  
 -44967422.182    79534606.424        2967.873          48.000  
 20  2 10 13 39  0.0000000  0 12R 5G 1G 6G10G12G13G15G17G19G24G28G32
 -46510893.609   225132602.036        2849.013          46.000  
 -45760513.821    75366833.932       -1990.259          47.000  
 -45351840.788    77514475.255        3529.443          47.000  
 -44664009.470    81129078.271       -2025.639          44.000  
 -47273558.852    67415758.910        3243.791          54.000  
 -45367613.986    77431554.124       -3914.929          46.000  
 -46159792.298    73268618.389       -3393.286          52.000  
 -48707197.160    59881942.042       -1044.518          57.000  
 -49404780.788    56216109.364         912.041          55.000  
 -49260124.216    56976291.731        1147.284          58.000  
 -46850817.881    69637247.107       -2759.564          50.000  
 -44967986.499    79531638.757        2967.558          48.000  
 20  2 10 13 39  1.0000000  0 12R 5G 1G 6G10G12G13G15G17G19G24G28G32
 -46511426.422   225129753.304        2848.084          46.000  
 -45760134.162    75368824.416       -1990.970          47.000  
 -45352513.740    77510945.919        3529.262          47.000  
 -44663622.146    81131104.115       -2026.114          44.000  
 -47274176.604    67412515.320        3243.601          54.000  
 -45366869.150    77435469.099       -3914.670          46.000  
 -46159147.138    73272011.847       -3393.382          52.000  
 -48706999.311    59882986.763       -1045.144          57.000  
 -49404953.622    56215197.658         911.316          55.000  
 -49260340.928    56975144.747        1146.732          58.000  
 -46850294.528    69640006.542       -2759.681          49.000  
 -44968550.750    79528671.455        2967.017          48.000  
 20  2 10 13 39  2.0000000  0 12R 5G 1G 6G10G12G13G15G17G19G24G28G32
 -46511959.175   225126905.200        2847.780          46.000  
 -45759758.275    75370815.503       -1991.370          47.000  
 -45353186.430    77507416.705        3529.188          47.000  
 -44663233.588    81133130.405       -2026.426          44.000  
 -47274793.619    67409271.975        3243.228          54.000  
 -45366124.992    77439384.168       -3915.104          46.000  
 -46158501.747    73275405.520       -3393.797          52.000  
 -48706800.375    59884032.044       -1045.555          57.000  
 -49405126.801    56214286.673         910.648          55.000  
 -49260557.797    56973998.345        1146.166          58.000  
 -46849770.050    69642766.129       -2759.600          49.000  
 -44969114.761    79525704.494        2966.796          48.000  
 20  2 10 13 39  3.0000000  0 12R 5G 1G 6G10G12G13G15G17G19G24G28G32
 -46512491.625   225124057.750        2847.348          46.000  
 -45759379.461    75372807.215       -1991.982          47.000  
 -45353858.971    77503887.600        3529.047          47.000  
 -44662846.371    81135157.138       -2026.905          44.000  
 -47275410.391    67406028.852        3242.930          54.000  
 -45365378.854    77443299.238       -3915.145          46.000  
 -46157856.202    73278799.388       -3394.067          52.000  
 -48706601.148    59885077.907       -1046.071          57.000  
 -49405299.953    56213376.405         909.949          55.000  
 -49260776.807    56972852.502        1145.586          58.000  
 -46849246.991    69645525.890       -2759.762          49.000  
 -44969679.622    79522737.905        2966.518          49.000  
 20  2 10 13 39  4.0000000  0 12R 5G 1G 6G10G12G13G15G17G19G24G28G32
 -46513024.656   225121210.934        2846.709          45.000  
 -45759000.515    75374799.534       -1992.305          46.000  
 -45354528.918    77500358.616        3528.881          47.000  
 -44662458.642    81137184.312       -2027.123          44.000  
 -47276028.325    67402785.973        3242.613          54.000  
 -45364633.825    77447214.389       -3915.460          46.000  
 -46157210.882    73282193.474       -3394.374          52.000  
 -48706402.004    59886124.318       -1046.531          57.000  
 -49405472.951    56212466.847         909.219          55.000  
 -49260996.095    56971707.247        1144.963          58.000  
 -46848721.717    69648285.775       -2759.764          49.000  
 -44970243.807    79519771.680        2966.235          49.000  
 20  2 10 13 39  5.0000000  0 12R 5G 1G 6G10G12G13G15G17G19G24G28G32
 -46513557.892   225118364.796        2845.866          45.000  
 -45758620.166    75376792.487       -1993.222          47.000  
 -45355198.524    77496829.739        3528.835          47.000  
 -44662072.644    81139211.939       -2027.905          44.000  
 -47276646.064    67399543.326        3242.487          54.000  
 -45363889.451    77451129.556       -3915.290          46.000  
 -46156566.281    73285587.765       -3394.411          52.000  
 -48706203.187    59887171.302       -1047.216          57.000  
 -49405645.821    56211558.003         908.484          55.000  
 -49261214.283    56970562.561        1144.370          58.000  
 -46848196.143    69651045.811       -2760.125          49.000  
 -44970808.951    79516805.817        2965.650          49.000  
 20  2 10 13 39  6.0000000  0 12R 5G 1G 6G10G12G13G15G17G19G24G28G32
 -46514090.500   225115519.324        2845.071          45.000  
 -45758239.913    75378786.009       -1993.853          47.000  
 -45355870.418    77493300.989        3528.694          47.000  
 -44661690.290    81141239.999       -2028.245          44.000  
 -47277262.571    67396300.920        3242.328          54.000  
 -45363144.137    77455044.786       -3915.161          46.000  
 -46155919.488    73288982.274       -3394.579          52.000  
 -48706004.312    59888218.840       -1047.853          57.000  
 -49405818.728    56210649.869         907.767          55.000  
 -49261431.551    56969418.446        1143.849          58.000  
 -46847672.398    69653805.990       -2760.282          49.000  
 -44971371.330    79513840.307        2965.222          49.000  
 20  2 10 13 39  7.0000000  0 12R 5G 1G 6G10G12G13G15G17G19G24G28G32
 -46514621.848   225112674.501        2844.375          45.000  
 -45757859.492    75380780.146       -1994.716          47.000  
 -45356542.665    77489772.360        3528.558          47.000  
 -44661305.867    81143268.500       -2028.864          44.000  
 -47277879.985    67393058.750        3242.213          54.000  
 -45362397.114    77458960.077       -3915.217          46.000  
 -46155272.450    73292376.997       -3394.677          52.000  
 -48705805.619    59889266.922       -1048.471          57.000  
 -49405991.807    56209742.444         907.036          55.000  
 -49261648.723    56968274.916        1143.282          58.000  
 -46847146.643    69656566.304       -2760.791          49.000  
 -44971934.652    79510875.134        2964.890          49.000  
 20  2 10 13 39  8.0000000  0 12R 5G 1G 6G10G12G13G15G17G19G24G28G32
 -46515154.020   225109830.325        2843.740          45.000  
 -45757479.928    75382774.870       -1995.123          47.000  
 -45357213.982    77486243.866        3528.291          47.000  
 -44660920.240    81145297.429       -2029.144          44.000  
 -47278497.797    67389816.831        3241.920          54.000  
 -45361651.108    77462875.410       -3915.219          46.000  
 -46154625.838    73295771.939       -3394.901          52.000  
 -48705605.920    59890315.575       -1049.021          57.000  
 -49406164.877    56208835.732         906.326          55.000  
 -49261866.487    56967131.971        1142.704          58.000  
 -46846620.242    69659326.750       -2760.587          49.000  
 -44972499.708    79507910.335        2964.599          49.000  
 20  2 10 13 39  9.0000000  0 12R 5G 1G 6G10G12G13G15G17G19G24G28G32
 -46515685.877   225106986.766        2843.289          45.000  
 -45757100.304    75384770.186       -1995.524          47.000  
 -45357885.153    77482715.453        3528.382          47.000  
 -44660539.266    81147326.827       -2029.627          44.000  
 -47279115.065    67386575.160        3241.567          54.000  
 -45360907.023    77466790.814       -3915.405          46.000  
 -46153981.071    73299167.114       -3395.293          52.000  
 -48705404.941    59891364.788       -1049.523          57.000  
 -49406337.775    56207929.737         905.618          55.000  
 -49262083.501    56965989.607        1142.088          58.000  
 -46846097.548    69662087.347       -2760.730          49.000  
 -44973062.639    79504945.885        2964.271          49.000  
 20  2 10 13 39 10.0000000  0 12R 5G 1G 6G10G12G13G15G17G19G24G28G32
 -46516217.467   225104143.881        2842.587          45.000  
 -45756724.719    75386766.156       -1996.335          46.000  
 -45358556.678    77479187.172        3528.325          47.000  
 -44660152.725    81149356.657       -2029.868          44.000  
 -47279731.632    67383333.712        3241.360          54.000  
 -45360162.186    77470706.243       -3915.363          46.000  
 -46153337.042    73302562.468       -3395.415          52.000  
 -48705204.139    59892414.578       -1050.087          57.000  
 -49406511.100    56207024.446         904.951          55.000  
 -49262300.999    56964847.827        1141.519          58.000  
 -46845569.264    69664848.088       -2760.831          49.000  
 -44973627.028    79501981.815        2963.882          49.000  
 20  2 10 13 39 11.0000000  0 12R 5G 1G 6G10G12G13G15G17G19G24G28G32
 -46516749.542   225101301.642        2841.914          45.000  
 -45756347.830    75388762.687       -1996.853          47.000  
 -45359227.016    77475659.030        3528.108          47.000  
 -44659766.545    81151386.935       -2030.483          44.000  
 -47280347.352    67380092.516        3241.117          54.000  
 -45359417.457    77474621.753       -3915.543          46.000  
 -46152690.221    73305958.062       -3395.679          52.000  
 -48705003.994    59893464.911       -1050.637          57.000  
 -49406682.482    56206119.870         904.244          55.000  
 -49262519.489    56963706.624        1140.925          58.000  
 -46845043.148    69667608.957       -2760.954          49.000  
 -44974190.829    79499018.092        2963.489          48.000  
 20  2 10 13 39 12.0000000  0 12R 5G 1G 6G10G12G13G15G17G19G24G28G32
 -46517280.987   225098460.100        2841.484          45.000  
 -45755965.063    75390759.858       -1997.277          46.000  
 -45359898.116    77472130.993        3527.941          47.000  
 -44659377.392    81153417.658       -2030.919          44.000  
 -47280963.834    67376851.544        3240.729          54.000  
 -45358673.591    77478537.272       -3915.790          46.000  
 -46152042.369    73309353.827       -3396.015          52.000  
 -48704803.436    59894515.824       -1051.012          57.000  
 -49406854.908    56205216.011         903.503          55.000  
 -49262736.830    56962565.967        1140.391          58.000  
 -46844516.965    69670369.990       -2760.789          49.000  
 -44974755.929    79496054.731        2963.274          49.000  
 20  2 10 13 39 13.0000000  0 12R 5G 1G 6G10G12G13G15G17G19G24G28G32
 -46517812.711   225095619.228        2840.294          45.000  
 -45755583.686    75392757.643       -1998.276          46.000  
 -45360570.149    77468603.066        3527.914          47.000  
 -44658984.424    81155448.826       -2031.366          45.000  
 -47281581.647    67373610.804        3240.658          54.000  
 -45357929.328    77482452.815       -3915.343          46.000  
 -46151394.872    73312749.792       -3395.927          52.000  
 -48704603.099    59895567.300       -1051.847          57.000  
 -49407025.920    56204312.852         902.769          55.000  
 -49262953.457    56961425.897        1139.767          58.000  
 -46843989.730    69673131.175       -2761.324          49.000  
 -44975319.578    79493091.752        2962.677          48.000  
 20  2 10 13 39 14.0000000  0 12R 5G 1G 6G10G12G13G15G17G19G24G28G32
 -46518344.362   225092778.928        2839.514          45.000  
 -45755203.675    75394755.997       -1999.201          46.000  
 -45361242.414    77465075.274        3527.750          47.000  
 -44658597.838    81157480.434       -2031.752          45.000  
 -47282198.710    67370370.336        3240.587          54.000  
 -45357183.574    77486368.477       -3915.430          46.000  
 -46150749.234    73316146.022       -3395.927          52.000  
 -48704402.225    59896619.311       -1052.557          57.000  
 -49407196.940    56203410.416         902.063          55.000  
 -49263169.601    56960286.432        1139.209          58.000  
 -46843463.729    69675892.475       -2761.749          49.000  
 -44975883.190    79490129.102        2962.241          48.000  
 20  2 10 13 39 15.0000000  0 12R 5G 1G 6G10G12G13G15G17G19G24G28G32
 -46518875.359   225089939.270        2839.031          45.000  
 -45754822.346    75396754.917       -1999.475          46.000  
 -45361913.138    77461547.595        3527.689          47.000  
 -44658209.716    81159512.481       -2032.250          45.000  
 -47282814.720    67367130.116        3240.274          54.000  
 -45356438.449    77490284.194       -3915.472          46.000  
 -46150103.508    73319542.486       -3396.411          52.000  
 -48704202.490    59897671.872       -1052.973          57.000  
 -49407368.886    56202508.686         901.368          55.000  
 -49263385.587    56959147.572        1138.607          58.000  
 -46842938.779    69678653.883       -2761.698          49.000  
 -44976445.975    79487166.801        2961.990          48.000  
 20  2 10 13 39 16.0000000  0 12R 5G 1G 6G10G12G13G15G17G19G24G28G32
 -46519406.139   225087100.281        2838.916          45.000  
 -45754441.236    75398754.451       -1999.450          46.000  
 -45362584.606    77458020.037        3527.398          47.000  
 -44657823.233    81161544.989       -2032.791          45.000  
 -47283430.017    67363890.131        3239.794          54.000  
 -45355694.406    77494199.953       -3915.909          46.000  
 -46149457.797    73322939.135       -3396.985          52.000  
 -48704003.397    59898725.003       -1053.348          57.000  
 -49407539.997    56201607.676         900.648          55.000  
 -49263601.961    56958009.301        1137.986          58.000  
 -46842413.425    69681415.452       -2761.592          50.000  
 -44977010.546    79484204.866        2961.954          49.000  
 20  2 10 13 39 17.0000000  0 12R 5G 1G 6G10G12G13G15G17G19G24G28G32
 -46519937.427   225084261.992        2838.348          45.000  
 -45754060.220    75400754.647       -1999.958          46.000  
 -45363256.357    77454492.585        3527.312          47.000  
 -44657438.687    81163577.897       -2033.124          46.000  
 -47284045.193    67360650.370        3239.450          54.000  
 -45354947.376    77498115.742       -3916.094          46.000  
 -46148811.243    73326335.968       -3397.214          52.000  
 -48703803.481    59899778.704       -1053.762          57.000  
 -49407712.622    56200707.372         899.966          55.000  
 -49263819.278    56956871.591        1137.412          58.000  
 -46841886.671    69684177.168       -2761.515          50.000  
 -44977573.433    79481243.317        2961.484          48.000  
 20  2 10 13 39 18.0000000  0 12R 5G 1G 6G10G12G13G15G17G19G24G28G32
 -46520467.480   225081424.380        2837.607          46.000  
 -45753677.791    75402755.461       -2000.698          46.000  
 -45363926.868    77450965.264        3527.216          47.000  
 -44657050.535    81165611.270       -2033.566          46.000  
 -47284659.910    67357410.843        3239.225          54.000  
 -45354202.717    77502031.563       -3916.129          46.000  
 -46148165.496    73329733.013       -3397.411          52.000  
 -48703604.726    59900832.981       -1054.363          57.000  
 -49407883.507    56199807.786         899.223          55.000  
 -49264035.820    56955734.459        1136.825          58.000  
 -46841362.516    69686939.039       -2761.592          50.000  
 -44978136.406    79478282.117        2961.240          48.000  
 20  2 10 13 39 19.0000000  0 12R 5G 1G 6G10G12G13G15G17G19G24G28G32
 -46520998.259   225078587.394        2836.676          46.000  
 -45753298.447    75404756.816       -2001.589          46.000  
 -45364597.560    77447438.061        3527.074          47.000  
 -44656664.757    81167645.059       -2033.870          46.000  
 -47285276.961    67354171.556        3239.179          54.000  
 -45353457.918    77505947.451       -3915.866          47.000  
 -46147518.885    73333130.274       -3397.378          51.000  
 -48703403.866    59901887.801       -1055.129          57.000  
 -49408054.781    56198908.900         898.529          55.000  
 -49264252.315    56954597.911        1136.307          58.000  
 -46840838.002    69689701.042       -2762.135          49.000  
 -44978699.642    79475321.280        2960.682          48.000  
 20  2 10 13 39 20.0000000  0 12R 5G 1G 6G10G12G13G15G17G19G24G28G32
 -46521528.882   225075751.084        2835.561          46.000  
 -45752920.443    75406758.856       -2002.834          46.000  
 -45365269.135    77443910.962        3527.146          47.000  
 -44656278.441    81169679.342       -2034.648          46.000  
 -47285893.443    67350932.501        3239.156          54.000  
 -45352713.540    77509863.369       -3915.623          47.000  
 -46146871.039    73336527.723       -3397.201          52.000  
 -48703203.043    59902943.198       -1055.895          57.000  
 -49408225.039    56198010.742         897.772          55.000  
 -49264468.096    56953461.945        1135.713          58.000  
 -46840313.161    69692463.194       -2762.445          50.000  
 -44979263.639    79472360.808        2960.104          49.000  
 20  2 10 13 39 21.0000000  0 12R 5G 1G 6G10G12G13G15G17G19G24G28G32
 -46522059.080   225072915.316        2835.497          46.000  
 -45752535.146    75408761.364       -2002.585          46.000  
 -45365940.700    77440384.015        3526.822          47.000  
 -44655890.811    81171714.016       -2034.770          46.000  
 -47286510.699    67347693.736        3238.633          54.000  
 -45351966.269    77513779.420       -3916.071          47.000  
 -46146225.053    73339925.468       -3397.865          52.000  
 -48703001.230    59903999.104       -1056.150          57.000  
 -49408395.986    56197113.289         897.098          55.000  
 -49264684.082    56952326.544        1135.176          58.000  
 -46839787.094    69695225.444       -2762.273          49.000  
 -44979827.883    79469400.654        2960.097          49.000  
 20  2 10 13 39 22.0000000  0 12R 5G 1G 6G10G12G13G15G17G19G24G28G32
 -46522589.714   225070080.275        2834.388          46.000  
 -45752153.589    75410764.591       -2003.839          46.000  
 -45366613.065    77436857.163        3526.899          47.000  
 -44655504.350    81173749.173       -2035.536          46.000  
 -47287126.106    67344455.168        3238.597          54.000  
 -45351220.736    77517695.454       -3915.727          47.000  
 -46145577.544    73343323.354       -3397.786          52.000  
 -48702799.681    59905055.610       -1056.911          57.000  
 -49408566.090    56196216.542         896.404          55.000  
 -49264900.335    56951191.714        1134.522          58.000  
 -46839262.025    69697987.872       -2762.726          49.000  
 -44980391.365    79466440.899        2959.512          48.000  
 20  2 10 13 39 23.0000000  0 12R 5G 1G 6G10G12G13G15G17G19G24G28G32
 -46523120.651   225067245.875        2833.995          46.000  
 -45751773.664    75412768.357       -2004.148          46.000  
 -45367282.052    77433330.444        3526.659          47.000  
 -44655117.480    81175784.742       -2035.714          45.000  
 -47287742.902    67341216.857        3238.251          54.000  
 -45350476.069    77521611.583       -3916.073          47.000  
 -46144929.771    73346721.474       -3398.119          52.000  
 -48702598.371    59906112.652       -1057.349          57.000  
 -49408736.540    56195320.513         895.659          55.000  
 -49265116.224    56950057.467        1134.006          58.000  
 -46838736.929    69700750.416       -2762.693          49.000  
 -44980953.517    79463481.499        2959.157          48.000  
 20  2 10 13 39 24.0000000  0 12R 5G 1G 6G10G12G13G15G17G19G24G28G32
 -46523650.256   225064412.121        2833.871          46.000  
 -45751392.625    75414772.722       -2004.118          46.000  
 -45367953.545    77429803.842        3526.422          47.000  
 -44654730.788    81177820.769       -2036.172          45.000  
 -47288360.630    67337978.787        3237.769          54.000  
 -45349731.230    77525527.748       -3916.581          47.000  
 -46144282.376    73350119.808       -3398.796          52.000  
 -48702396.231    59907170.261       -1057.677          57.000  
 -49408906.109    56194425.191         894.994          55.000  
 -49265331.509    56948923.806        1133.319          58.000  
 -46838210.241    69703513.107       -2762.480          49.000  
 -44981516.450    79460522.432        2959.241          49.000  
 20  2 10 13 39 25.0000000  0 12R 5G 1G 6G10G12G13G15G17G19G24G28G32
 -46524179.668   225061579.062        2832.943          46.000  
 -45751011.768    75416777.768       -2005.017          46.000  
 -45368624.529    77426277.347        3526.391          47.000  
 -44654344.690    81179857.262       -2036.864          45.000  
 -47288977.329    67334740.916        3237.591          54.000  
 -45348984.865    77529443.896       -3916.299          47.000  
 -46143635.438    73353518.301       -3398.725          52.000  
 -48702194.076    59908228.452       -1058.404          57.000  
 -49409076.975    56193530.582         894.197          55.000  
 -49265547.435    56947790.710        1132.828          58.000  
 -46837684.134    69706275.974       -2762.661          50.000  
 -44982077.790    79457563.780        2958.600          49.000  
 20  2 10 13 39 26.0000000  0 12R 5G 1G 6G10G12G13G15G17G19G24G28G32
 -46524709.950   225058746.622        2831.860          46.000  
 -45750628.806    75418783.388       -2006.134          46.000  
 -45369295.889    77422750.980        3526.367          47.000  
 -44653954.929    81181894.151       -2037.177          45.000  
 -47289593.256    67331503.298        3237.640          54.000  
 -45348239.512    77533360.130       -3915.988          47.000  
 -46142989.349    73356917.037       -3398.621          52.000  
 -48701992.200    59909287.197       -1059.150          57.000  
 -49409247.325    56192636.690         893.505          55.000  
 -49265763.579    56946658.177        1132.313          58.000  
 -46837157.805    69709038.972       -2763.187          50.000  
 -44982640.800    79454605.467        2957.910          49.000  
 20  2 10 13 39 27.0000000  0 12R 5G 1G 6G10G12G13G15G17G19G24G28G32
 -46525239.411   225055914.819        2831.367          46.000  
 -45750245.385    75420789.587       -2006.605          46.000  
 -45369967.272    77419224.735        3526.182          47.000  
 -44653562.908    81183931.508       -2037.557          46.000  
 -47290208.407    67328265.956        3237.262          54.000  
 -45347493.834    77537276.468       -3916.410          47.000  
 -46142341.882    73360316.022       -3399.024          52.000  
 -48701791.102    59910346.480       -1059.614          57.000  
 -49409417.446    56191743.514         892.812          55.000  
 -49265979.698    56945526.230        1131.655          58.000  
 -46836632.243    69711802.080       -2763.234          49.000  
 -44983202.049    79451647.487        2957.684          49.000  
 20  2 10 13 39 28.0000000  0 12R 5G 1G 6G10G12G13G15G17G19G24G28G32
 -46525769.391   225053083.661        2831.224          46.000  
 -45749863.705    75422796.386       -2006.793          46.000  
 -45370638.005    77415698.626        3525.896          47.000  
 -44653176.215    81185969.279       -2037.921          46.000  
 -47290823.305    67325028.842        3236.813          54.000  
 -45346748.978    77541192.819       -3916.692          47.000  
 -46141694.291    73363715.213       -3399.546          52.000  
 -48701589.916    59911406.326       -1059.942          57.000  
 -49409587.533    56190851.049         892.107          55.000  
 -49266194.572    56944394.848        1131.098          58.000  
 -46836106.238    69714565.336       -2763.034          49.000  
 -44983764.810    79448689.872        2957.610          49.000  
 20  2 10 13 39 29.0000000  0 12R 5G 1G 6G10G12G13G15G17G19G24G28G32
 -46526299.517   225050253.211        2830.479          45.000  
 -45749483.405    75424803.831       -2007.451          46.000  
 -45371309.682    77412172.609        3525.919          47.000  
 -44652791.241    81188007.525       -2038.451          46.000  
 -47291437.998    67321791.953        3236.591          54.000  
 -45346004.725    77545109.199       -3916.576          47.000  
 -46141047.238    73367114.582       -3399.707          52.000  
 -48701387.641    59912466.759       -1060.516          57.000  
 -49409758.073    56189959.308         891.370          55.000  
 -49266408.237    56943264.045        1130.473          58.000  
 -46835580.966    69717328.762       -2763.181          49.000  
 -44984327.413    79445732.635        2957.316          49.000  
 20  2 10 13 39 30.0000000  0 12R 5G 1G 6G10G12G13G15G17G19G24G28G32
 -46526829.704   225047423.440        2829.087          45.000  
 -45749102.609    75426811.878       -2008.741          45.000  
 -45371980.951    77408646.727        3525.988          47.000  
 -44652402.610    81190046.185       -2038.776          46.000  
 -47292054.032    67318555.305        3236.687          54.000  
 -45345258.219    77549025.606       -3916.082          47.000  
 -46140400.351    73370514.159       -3399.471          52.000  
 -48701186.430    59913527.748       -1061.417          57.000  
 -49409927.287    56189068.277         890.653          55.000  
 -49266623.087    56942133.822        1129.980          58.000  
 -46835055.175    69720092.343       -2763.954          49.000  
 -44984890.113    79442775.782        2956.479          49.000  
 20  2 10 13 39 31.0000000  0 12R 5G 1G 6G10G12G13G15G17G19G24G28G32
 -46527359.333   225044594.282        2828.585          44.000  
 -45748719.237    75428820.479       -2009.153          45.000  
 -45372650.959    77405120.970        3525.723          47.000  
 -44652012.827    81192085.303       -2039.390          46.000  
 -47292669.536    67315318.909        3236.417          54.000  
 -45344514.099    77552942.132       -3916.320          47.000  
 -46139754.153    73373913.973       -3399.637          52.000  
 -48700984.373    59914589.268       -1061.952          57.000  
 -49410096.794    56188177.943         889.955          55.000  
 -49266839.061    56941004.189        1129.368          58.000  
 -46834529.177    69722856.010       -2764.032          49.000  
 -44985452.731    79439819.248        2956.212          49.000  
 20  2 10 13 39 32.0000000  0 12R 5G 1G 6G10G12G13G15G17G19G24G28G32
 -46527888.079   225041765.784        2828.115          44.000  
 -45748336.166    75430829.671       -2009.454          45.000  
 -45373320.678    77401595.332        3525.582          47.000  
 -44651625.247    81194124.831       -2039.593          46.000  
 -47293285.691    67312082.768        3236.029          54.000  
 -45343767.800    77556858.683       -3916.434          47.000  
 -46139108.095    73377314.019       -3400.128          52.000  
 -48700782.280    59915651.348       -1062.426          57.000  
 -49410265.519    56187288.341         889.250          55.000  
 -49267054.612    56939875.144        1128.735          58.000  
 -46834002.742    69725619.823       -2763.850          50.000  
 -44986016.678    79436863.089        2955.924          49.000  
 20  2 10 13 39 33.0000000  0 12R 5G 1G 6G10G12G13G15G17G19G24G28G32
 -46528417.260   225038937.954        2827.670          44.000  
 -45747954.234    75432839.502       -2009.913          45.000  
 -45373991.080    77398069.811        3525.407          47.000  
 -44651237.808    81196164.850       -2040.154          45.000  
 -47293902.136    67308846.863        3235.674          55.000  
 -45343023.394    77560775.295       -3916.744          46.000  
 -46138461.577    73380714.267       -3400.538          52.000  
 -48700580.720    59916713.993       -1062.823          57.000  
 -49410434.979    56186399.456         888.522          55.000  
 -49267269.933    56938746.676        1128.175          58.000  
 -46833475.398    69728383.787       -2763.864          50.000  
 -44986579.419    79433907.283        2955.750          49.000  
 20  2 10 13 39 34.0000000  0 12R 5G 1G 6G10G12G13G15G17G19G24G28G32
 -46528945.643   225036110.757        2827.053          44.000  
 -45747571.429    75434849.925       -2010.398          45.000  
 -45374662.660    77394544.417        3525.263          47.000  
 -44650849.099    81198205.298       -2040.698          45.000  
 -47294517.348    67305611.177        3235.471          54.000  
 -45342277.649    77564691.938       -3916.866          46.000  
 -46137813.995    73384114.696       -3400.648          52.000  
 -48700378.638    59917777.200       -1063.369          57.000  
 -49410603.850    56185511.272         887.810          55.000  
 -49267483.973    56937618.783        1127.593          58.000  
 -46832950.413    69731147.908       -2764.096          50.000  
 -44987143.083    79430951.865        2955.337          48.000  
 20  2 10 13 39 35.0000000  0 12R 5G 1G 6G10G12G13G15G17G19G24G28G32
 -46529474.679   225033284.207        2826.236          44.000  
 -45747187.292    75436860.973       -2011.205          45.000  
 -45375332.849    77391019.132        3525.248          47.000  
 -44650464.066    81200246.175       -2040.932          44.000  
 -47295134.508    67302375.741        3235.311          54.000  
 -45341532.796    77568608.613       -3916.744          46.000  
 -46137166.969    73387515.341       -3400.751          52.000  
 -48700176.109    59918840.978       -1064.008          57.000  
 -49410772.531    56184623.802         887.183          55.000  
 -49267697.915    56936491.477        1127.022          58.000  
 -46832425.204    69733912.171       -2764.319          49.000  
 -44987707.050    79427996.794        2954.949          48.000  
 20  2 10 13 39 36.0000000  0 12R 5G 1G 6G10G12G13G15G17G19G24G28G32
 -46530002.844   225030458.310        2825.417          45.000  
 -45746805.041    75438872.610       -2012.146          45.000  
 -45376004.631    77387493.975        3525.197          47.000  
 -44650073.140    81202287.520       -2041.705          44.000  
 -47295752.018    67299140.550        3235.114          54.000  
 -45340787.991    77572525.357       -3916.679          46.000  
 -46136519.807    73390916.213       -3400.877          52.000  
 -48699973.570    59919905.307       -1064.683          57.000  
 -49410941.047    56183737.051         886.412          55.000  
 -49267912.015    56935364.745        1126.464          58.000  
 -46831898.324    69736676.573       -2764.640          50.000  
 -44988270.141    79425042.082        2954.534          48.000  
 20  2 10 13 39 37.0000000  0 12R 5G 1G 6G10G12G13G15G17G19G24G28G32
 -46530530.864   225027633.077        2824.698          45.000  
 -45746424.621    75440884.846       -2012.837          45.000  
 -45376676.085    77383968.957        3524.939          47.000  
 -44649684.811    81204329.272       -2041.945          44.000  
 -47296367.714    67295905.592        3234.942          54.000  
 -45340042.398    77576442.145       -3916.510          46.000  
 -46135871.288    73394317.281       -3401.043          52.000  
 -48699770.762    59920970.187       -1065.309          57.000  
 -49411110.227    56182851.001         885.625          55.000  
 -49268125.813    56934238.586        1125.881          58.000  
 -46831372.043    69739441.104       -2764.854          50.000  
 -44988831.278    79422087.728        2954.194          48.000  
 20  2 10 13 39 38.0000000  0 12R 5G 1G 6G10G12G13G15G17G19G24G28G32
 -46531058.810   225024808.518        2824.245          45.000  
 -45746042.061    75442897.672       -2013.169          45.000  
 -45377345.470    77380444.041        3524.865          47.000  
 -44649294.165    81206371.494       -2042.418          44.000  
 -47296983.616    67292670.885        3234.629          54.000  
 -45339297.507    77580359.012       -3916.954          46.000  
 -46135224.531    73397718.574       -3401.402          52.000  
 -48699567.653    59922035.618       -1065.715          57.000  
 -49411279.587    56181965.667         884.969          55.000  
 -49268339.635    56933113.020        1125.278          58.000  
 -46830844.188    69742205.758       -2764.817          50.000  
 -44989394.420    79419133.740        2953.814          48.000  
 20  2 10 13 39 39.0000000  0 12R 5G 1G 6G10G12G13G15G17G19G24G28G32
 -46531586.612   225021984.599        2823.809          46.000  
 -45745659.545    75444911.078       -2013.475          45.000  
 -45378017.994    77376919.262        3524.640          47.000  
 -44648907.772    81208414.120       -2042.570          44.000  
 -47297599.288    67289436.426        3234.226          54.000  
 -45338552.810    77584275.922       -3917.213          46.000  
 -46134578.022    73401120.076       -3401.772          52.000  
 -48699364.353    59923101.609       -1066.162          57.000  
 -49411448.195    56181081.052         884.239          55.000  
 -49268553.372    56931988.022        1124.703          58.000  
 -46830319.495    69744970.557       -2764.718          50.000  
 -44989956.617    79416180.107        2953.606          48.000  
 20  2 10 13 39 40.0000000  0 12R 5G 1G 6G10G12G13G15G17G19G24G28G32
 -46532114.777   225019161.354        2823.267          46.000  
 -45745274.616    75446925.140       -2014.030          45.000  
 -45378688.546    77373394.588        3524.533          47.000  
 -44648520.565    81210457.217       -2043.237          44.000  
 -47298214.585    67286202.175        3233.982          54.000  
 -45337807.530    77588192.830       -3917.093          46.000  
 -46133930.249    73404521.760       -3401.947          52.000  
 -48699160.881    59924168.172       -1066.653          57.000  
 -49411615.595    56180197.137         883.575          55.000  
 -49268768.028    56930863.594        1124.119          58.000  
 -46829793.781    69747735.524       -2764.819          50.000  
 -44990519.532    79413226.862        2953.133          48.000  
 20  2 10 13 39 41.0000000  0 12R 5G 1G 6G10G12G13G15G17G19G24G28G32
 -46532643.159   225016338.758        2822.309          46.000  
 -45744890.903    75448939.801       -2014.945          45.000  
 -45379360.691    77369870.040        3524.415          47.000  
 -44648127.872    81212500.732       -2043.606          44.000  
 -47298829.483    67282968.171        3233.912          54.000  
 -45337061.785    77592109.809       -3917.055          46.000  
 -46133281.999    73407923.661       -3401.992          52.000  
 -48698957.819    59925235.294       -1067.371          57.000  
 -49411783.260    56179313.943         882.826          55.000  
 -49268982.212    56929739.753        1123.528          58.000  
 -46829266.618    69750500.630       -2765.098          50.000  
 -44991081.537    79410273.965        2952.727          48.000  
 20  2 10 13 39 42.0000000  0 12R 5G 1G 6G10G12G13G15G17G19G24G28G32
 -46533171.034   225013516.820        2821.496          46.000  
 -45744509.093    75450955.052       -2015.733          45.000  
 -45380030.375    77366345.617        3524.353          47.000  
 -44647743.163    81214544.715       -2044.236          44.000  
 -47299444.671    67279734.428        3233.678          54.000  
 -45336317.816    77596026.835       -3916.884          46.000  
 -46132633.848    73411325.787       -3402.128          52.000  
 -48698755.643    59926302.968       -1067.997          57.000  
 -49411952.022    56178431.466         882.075          55.000  
 -49269195.671    56928616.490        1122.988          58.000  
 -46828740.547    69753265.867       -2765.438          50.000  
 -44991640.960    79407321.432        2952.292          48.000  
 20  2 10 13 39 43.0000000  0 12R 5G 1G 6G10G12G13G15G17G19G24G28G32
 -46533698.617   225010695.531        2820.766          46.000  
 -45744124.173    75452970.905       -2016.302          45.000  
 -45380701.618    77362821.330        3524.293          47.000  
 -44647349.934    81216589.109       -2044.610          45.000  
 -47300058.844    67276500.924        3233.489          54.000  
 -45335572.174    77599943.942       -3917.078          46.000  
 -46131986.899    73414728.130       -3402.346          51.000  
 -48698552.809    59927371.190       -1068.607          57.000  
 -49412118.998    56177549.695         881.357          55.000  
 -49269409.130    56927493.816        1122.408          58.000  
 -46828214.905    69756031.220       -2765.532          50.000  
 -44992200.429    79404369.255        2951.865          48.000  
 20  2 10 13 39 44.0000000  0 12R 5G 1G 6G10G12G13G15G17G19G24G28G32
 -46534225.911   225007874.858        2820.373          46.000  
 -45743740.665    75454987.294       -2016.505          45.000  
 -45381372.025    77359297.164        3524.097          47.000  
 -44646957.949    81218633.937       -2044.936          46.000  
 -47300673.876    67273267.685        3233.061          54.000  
 -45334826.665    77603861.106       -3917.189          46.000  
 -46131340.670    73418130.711       -3402.698          51.000  
 -48698349.399    59928439.956       -1069.045          57.000  
 -49412285.818    56176668.637         880.675          55.000  
 -49269622.093    56926371.738        1121.793          58.000  
 -46827687.527    69758796.690       -2765.432          49.000  
 -44992762.911    79401417.399        2951.700          48.000  
 20  2 10 13 39 45.0000000  0 12R 5G 1G 6G10G12G13G15G17G19G24G28G32
 -46534753.422   225005054.921        2820.092          46.000  
 -45743355.117    75457004.349       -2016.868          45.000  
 -45382043.844    77355773.097        3523.889          47.000  
 -44646569.092    81220679.217       -2045.151          45.000  
 -47301289.438    67270034.654        3232.636          54.000  
 -45334081.432    77607778.274       -3917.603          46.000  
 -46130692.752    73421533.464       -3403.273          52.000  
 -48698145.601    59929509.306       -1069.330          57.000  
 -49412453.491    56175788.298         879.983          55.000  
 -49269835.516    56925250.239        1121.192          58.000  
 -46827162.143    69761562.356       -2765.305          50.000  
 -44993322.489    79398465.956        2951.572          48.000  
 20  2 10 13 39 46.0000000  0 12R 5G 1G 6G10G12G13G15G17G19G24G28G32
 -46535280.933   225002235.660        2819.169          46.000  
 -45742971.150    75459022.064       -2017.821          45.000  
 -45382712.690    77352249.154        3523.927          47.000  
 -44646185.762    81222724.967       -2046.031          45.000  
 -47301904.108    67266801.851        3232.495          54.000  
 -45333334.671    77611695.453       -3917.470          46.000  
 -46130045.860    73424936.383       -3403.225          52.000  
 -48697942.020    59930579.243       -1070.058          57.000  
 -49412621.201    56174908.666         879.320          55.000  
 -49270049.362    56924129.319        1120.615          58.000  
 -46826635.162    69764328.175       -2765.552          50.000  
 -44993884.636    79395514.895        2951.010          48.000  
 20  2 10 13 39 47.0000000  0 12R 5G 1G 6G10G12G13G15G17G19G24G28G32
 -46535808.153   224999417.019        2818.238          46.000  
 -45742587.263    75461040.327       -2018.510          45.000  
 -45383380.881    77348725.347        3523.670          47.000  
 -44645797.159    81224771.119       -2046.351          44.000  
 -47302519.768    67263569.292        3232.503          54.000  
 -45332587.432    77615612.695       -3917.138          46.000  
 -46129398.289    73428339.534       -3403.134          52.000  
 -48697738.041    59931649.719       -1070.819          57.000  
 -49412789.019    56174029.753         878.484          55.000  
 -49270262.446    56923008.977        1120.085          58.000  
 -46826109.559    69767094.128       -2766.126          49.000  
 -44994445.852    79392564.172        2950.512          48.000  
 20  2 10 13 39 48.0000000  0 12R 5G 1G 6G10G12G13G15G17G19G24G28G32
 -46536335.664   224996599.013        2817.218          46.000  
 -45742201.468    75463059.193       -2019.724          45.000  
 -45384051.399    77345201.647        3523.708          47.000  
 -44645405.923    81226817.715       -2046.839          44.000  
 -47303134.834    67260336.989        3232.458          54.000  
 -45331842.959    77619530.003       -3916.816          46.000  
 -46128750.324    73431742.911       -3403.135          52.000  
 -48697534.641    59932720.740       -1071.577          57.000  
 -49412954.934    56173151.543         877.859          55.000  
 -49270475.627    56921889.214        1119.532          58.000  
 -46825584.101    69769860.203       -2766.481          50.000  
 -44995007.462    79389613.818        2949.862          48.000  
 20  2 10 13 39 49.0000000  0 12R 5G 1G 6G10G12G13G15G17G19G24G28G32
 -46536863.175   224993781.629        2816.965          46.000  
 -45741817.988    75465078.622       -2020.031          45.000  
 -45384724.158    77341678.085        3523.596          47.000  
 -44645016.147    81228864.740       -2047.310          44.000  
 -47303750.313    67257104.943        3231.974          54.000  
 -45331096.514    77623447.388       -3917.390          46.000  
 -46128102.536    73435146.514       -3403.625          52.000  
 -48697331.714    59933792.298       -1071.891          57.000  
 -49413121.519    56172274.045         877.122          55.000  
 -49270689.158    56920770.029        1118.898          58.000  
 -46825057.443    69772626.394       -2766.440          50.000  
 -44995568.388    79386663.783        2949.851          48.000  
 20  2 10 13 39 50.0000000  0 12R 5G 1G 6G10G12G13G15G17G19G24G28G32
 -46537390.469   224990964.915        2816.570          46.000  
 -45741434.594    75467098.667       -2020.500          45.000  
 -45385392.139    77338154.638        3523.382          47.000  
 -44644628.003    81230912.214       -2047.523          44.000  
 -47304365.840    67253873.131        3231.602          54.000  
 -45330351.957    77627364.795       -3917.554          47.000  
 -46127455.649    73438550.314       -3403.977          51.000  
 -48697128.362    59934864.429       -1072.313          57.000  
 -49413288.521    56171397.265         876.432          55.000  
 -49270902.061    56919651.402        1118.329          58.000  
 -46824531.009    69775392.724       -2766.260          49.000  
 -44996131.894    79383714.149        2949.536          48.000  
 20  2 10 13 39 51.0000000  0 12R 5G 1G 6G10G12G13G15G17G19G24G28G32
 -46537917.097   224988148.905        2815.868          46.000  
 -45741048.678    75469119.325       -2020.797          45.000  
 -45386062.870    77334631.315        3523.305          47.000  
 -44644238.560    81232960.162       -2048.225          44.000  
 -47304980.518    67250641.543        3231.399          55.000  
 -45329605.922    77631282.230       -3917.623          46.000  
 -46126808.653    73441954.315       -3404.264          51.000  
 -48696924.698    59935937.130       -1072.818          56.000  
 -49413455.496    56170521.203         875.705          55.000  
 -49271114.081    56918533.340        1117.766          58.000  
 -46824003.993    69778159.237       -2766.433          50.000  
 -44996696.108    79380764.875        2949.187          48.000  
 20  2 10 13 39 52.0000000  0 12R 5G 1G 6G10G12G13G15G17G19G24G28G32
 -46538443.312   224985333.561        2814.827          46.000  
 -45740666.223    75471140.615       -2021.962          46.000  
 -45386731.205    77331108.107        3523.173          47.000  
 -44643849.355    81235008.526       -2048.619          43.000  
 -47305595.416    67247410.201        3231.308          54.000  
 -45328860.641    77635199.706       -3917.307          47.000  
 -46126161.725    73445358.503       -3404.137          51.000  
 -48696720.138    59937010.394       -1073.609          57.000  
 -49413622.553    56169645.843         874.996          55.000  
 -49271325.810    56917415.874        1117.187          58.000  
 -46823477.739    69780925.880       -2766.879          50.000  
 -44997257.421    79377815.967        2948.447          48.000  
 20  2 10 13 39 53.0000000  0 12R 5G 1G 6G10G12G13G15G17G19G24G28G32
 -46538969.806   224982518.828        2814.172          46.000  
 -45740280.237    75473162.447       -2022.391          46.000  
 -45387400.091    77327585.045        3523.052          47.000  
 -44643459.664    81237057.308       -2048.969          44.000  
 -47306209.565    67244179.119        3231.085          54.000  
 -45328113.470    77639117.282       -3917.361          47.000  
 -46125512.884    73448762.934       -3404.320          51.000  
 -48696515.153    59938084.198       -1074.239          57.000  
 -49413788.812    56168771.203         874.291          55.000  
 -49271538.471    56916299.017        1116.617          58.000  
 -46822950.865    69783692.630       -2766.994          50.000  
 -44997820.385    79374867.398        2948.243          48.000  
 20  2 10 13 39 54.0000000  0 12R 5G 1G 6G10G12G13G15G17G19G24G28G32
 -46539496.010   224979704.758        2813.756          46.000  
 -45739895.451    75475184.899       -2022.721          46.000  
 -45388071.332    77324062.087        3522.993          47.000  
 -44643069.652    81239106.555       -2049.514          43.000  
 -47306824.826    67240948.279        3230.708          54.000  
 -45327369.533    77643034.883       -3917.509          47.000  
 -46124863.219    73452167.563       -3404.698          51.000  
 -48696311.536    59939158.564       -1074.661          57.000  
 -49413954.861    56167897.279         873.573          55.000  
 -49271750.769    56915182.747        1116.000          58.000  
 -46822424.641    69786459.528       -2766.855          49.000  
 -44998380.850    79371919.206        2948.014          48.000  
 20  2 10 13 39 55.0000000  0 12R 5G 1G 6G10G12G13G15G17G19G24G28G32
 -46540022.431   224976891.355        2813.261          46.000  
 -45739511.851    75477207.950       -2023.186          46.000  
 -45388741.381    77320539.248        3522.841          47.000  
 -44642677.083    81241156.204       -2049.829          44.000  
 -47307439.869    67237717.663        3230.406          54.000  
 -45326622.669    77646952.520       -3917.790          47.000  
 -46124214.793    73455572.392       -3405.070          52.000  
 -48696107.727    59940233.484       -1075.119          57.000  
 -49414120.921    56167024.059         872.876          55.000  
 -49271963.720    56914067.058        1115.396          58.000  
 -46821898.753    69789226.584       -2766.989          50.000  
 -44998940.813    79368971.387        2947.786          48.000  
 20  2 10 13 39 56.0000000  0 12R 5G 1G 6G10G12G13G15G17G19G24G28G32
 -46540548.417   224974078.629        2812.655          46.000  
 -45739126.929    75479231.620       -2023.649          46.000  
 -45389413.529    77317016.548        3522.618          47.000  
 -44642289.015    81243206.314       -2050.150          44.000  
 -47308054.127    67234487.285        3230.136          54.000  
 -45325876.153    77650870.203       -3917.880          47.000  
 -46123567.450    73458977.422       -3405.292          52.000  
 -48695903.546    59941308.974       -1075.620          56.000  
 -49414286.616    56166151.558         872.152          55.000  
 -49272176.405    56912951.960        1114.789          58.000  
 -46821373.731    69791993.781       -2767.050          50.000  
 -44999501.044    79366023.936        2947.324          48.000  
 20  2 10 13 39 57.0000000  0 12R 5G 1G 6G10G12G13G15G17G19G24G28G32
 -46541074.403   224971266.575        2811.880          46.000  
 -45738743.245    75481255.889       -2024.399          46.000  
 -45390084.589    77313493.954        3522.530          47.000  
 -44641900.787    81245256.847       -2050.539          44.000  
 -47308669.678    67231257.155        3229.956          54.000  
 -45325130.552    77654787.922       -3917.808          47.000  
 -46122920.387    73462382.658       -3405.448          52.000  
 -48695697.964    59942385.026       -1076.266          57.000  
 -49414452.258    56165279.768         871.440          55.000  
 -49272388.897    56911837.420        1114.273          58.000  
 -46820846.133    69794761.116       -2767.358          50.000  
 -45000062.142    79363076.835        2947.046          48.000  
 20  2 10 13 39 58.0000000  0 12R 5G 1G 6G10G12G13G15G17G19G24G28G32
 -46541599.663   224968455.160        2810.981          46.000  
 -45738358.108    75483280.755       -2025.121          46.000  
 -45390753.499    77309971.498        3522.411          47.000  
 -44641510.491    81247307.843       -2051.195          44.000  
 -47309283.742    67228027.257        3229.826          54.000  
 -45324384.653    77658705.698       -3917.776          47.000  
 -46122272.412    73465788.092       -3405.417          51.000  
 -48695491.761    59943461.632       -1076.947          57.000  
 -49414619.024    56164408.688         870.734          55.000  
 -49272600.856    56910723.437        1113.702          58.000  
 -46820322.343    69797528.595       -2767.680          49.000  
 -45000624.052    79360130.107        2946.425          48.000  
 20  2 10 13 39 59.0000000  0 12R 5G 1G 6G10G12G13G15G17G19G24G28G32
 -46542125.648   224965644.375        2810.271          46.000  
 -45737971.767    75485306.197       -2025.821          47.000  
 -45391423.872    77306449.155        3522.348          47.000  
 -44641118.054    81249359.254       -2051.522          44.000  
 -47309898.495    67224797.619        3229.647          54.000  
 -45323637.628    77662623.539       -3917.656          47.000  
 -46121623.638    73469193.771       -3405.615          51.000  
 -48695286.838    59944538.783       -1077.606          57.000  
 -49414784.948    56163538.325         869.969          55.000  
 -49272812.211    56909610.051        1113.139          58.000  
 -46819795.910    69800296.187       -2767.890          49.000  
 -45001185.403    79357183.721        2946.080          48.000  
 20  2 10 13 40  0.0000000  0 12R 5G 1G 6G10G12G13G15G17G19G24G28G32
 -46542651.634   224962834.265        2809.760          46.000  
 -45737583.232    75487332.259       -2026.356          47.000  
 -45392096.419    77302926.948        3522.142          47.000  
 -44640723.444    81251411.123       -2051.948          45.000  
 -47310513.356    67221568.233        3229.311          54.000  
 -45322891.488    77666541.431       -3917.893          47.000  
 -46120975.342    73472599.658       -3405.992          51.000  
 -48695082.206    59945616.495       -1078.066          57.000  
 -49414950.916    56162668.676         869.282          55.000  
 -49273023.614    56908497.258        1112.498          58.000  
 -46819266.277    69803063.914       -2767.844          49.000  
 -45001743.783    79354237.709        2945.750          48.000  
 20  2 10 13 40  1.0000000  0 12R 5G 1G 6G10G12G13G15G17G19G24G28G32
 -46543176.894   224960024.787        2809.460          46.000  
 -45737196.920    75489358.889       -2026.627          47.000  
 -45392768.132    77299404.866        3521.890          47.000  
 -44640330.920    81253463.425       -2052.630          46.000  
 -47311129.293    67218339.083        3228.821          54.000  
 -45322145.952    77670459.366       -3918.257          47.000  
 -46120327.610    73476005.755       -3406.454          52.000  
 -48694876.267    59946694.741       -1078.271          57.000  
 -49415115.941    56161799.725         868.623          55.000  
 -49273234.932    56907385.041        1111.892          58.000  
 -46818739.479    69805831.751       -2767.461          49.000  
 -45002304.109    79351292.045        2945.663          48.000  
 20  2 10 13 40  2.0000000  0 12R 5G 1G 6G10G12G13G15G17G19G24G28G32
 -46543702.371   224957215.976        2809.483          46.000  
 -45736812.654    75491386.110       -2026.460          47.000  
 -45393439.594    77295882.906        3521.795          46.000  
 -44639939.043    81255516.151       -2052.954          46.000  
 -47311743.696    67215110.176        3228.220          54.000  
 -45321399.586    77674377.360       -3918.812          47.000  
 -46119680.402    73479412.063       -3407.138          52.000  
 -48694671.189    59947773.553       -1078.488          57.000  
 -49415280.849    56160931.502         867.935          55.000  
 -49273446.541    56906273.420        1111.222          58.000  
 -46818214.600    69808599.747       -2767.178          49.000  
 -45002863.162    79348346.739        2945.828          48.000  
 20  2 10 13 40  3.0000000  0 12R 5G 1G 6G10G12G13G15G17G19G24G28G32
 -46544227.703   224954407.893        2808.455          46.000  
 -45736429.088    75493413.998       -2027.319          47.000  
 -45394112.104    77292361.069        3521.580          46.000  
 -44639552.914    81257569.309       -2053.329          45.000  
 -47312358.219    67211881.475        3228.229          55.000  
 -45320654.853    77678295.344       -3918.622          47.000  
 -46119031.785    73482818.542       -3407.162          52.000  
 -48694465.623    59948852.953       -1079.180          57.000  
 -49415446.318    56160063.992         867.209          55.000  
 -49273658.657    56905162.357        1110.714          58.000  
 -46817686.278    69811367.926       -2767.640          49.000  
 -45003420.464    79345401.842        2945.235          48.000  
 20  2 10 13 40  4.0000000  0 12R 5G 1G 6G10G12G13G15G17G19G24G28G32
 -46544753.326   224951600.544        2806.700          46.000  
 -45736042.923    75495442.594       -2029.281          47.000  
 -45394781.749    77288839.319        3521.719          46.000  
 -44639161.236    81259622.948       -2054.005          46.000  
 -47312972.005    67208652.975        3228.587          54.000  
 -45319909.574    77682213.312       -3917.833          47.000  
 -46118382.954    73486225.155       -3406.430          51.000  
 -48694260.726    59949932.972       -1080.491          56.000  
 -49415610.790    56159197.214         866.391          55.000  
 -49273870.774    56904051.878        1110.242          58.000  
 -46817158.860    69814136.315       -2768.726          50.000  
 -45003978.699    79342457.359        2944.172          48.000  
 20  2 10 13 40  5.0000000  0 12R 5G 1G 6G10G12G13G15G17G19G24G28G32
 -46545278.513   224948793.730        2805.713          46.000  
 -45735654.845    75497471.648       -2030.470          47.000  
 -45395450.998    77285317.718        3521.797          46.000  
 -44638768.488    81261676.993       -2054.270          46.000  
 -47313585.792    67205424.777        3228.644          54.000  
 -45319162.336    77686131.418       -3917.277          47.000  
 -46117733.274    73489632.058       -3406.301          51.000  
 -48694055.777    59951013.477       -1081.407          56.000  
 -49415775.098    56158331.135         865.665          55.000  
 -49274081.367    56902941.986        1109.686          58.000  
 -46816634.346    69816904.753       -2769.305          49.000  
 -45004535.167    79339513.179        2943.394          48.000  
 20  2 10 13 40  6.0000000  0 12R 5G 1G 6G10G12G13G15G17G19G24G28G32
 -46545803.554   224945987.492        2805.351          46.000  
 -45735268.521    75499501.203       -2030.678          47.000  
 -45396120.784    77281796.281        3521.456          46.000  
 -44638377.030    81263731.473       -2054.694          46.000  
 -47314200.567    67202196.873        3228.143          54.000  
 -45318415.608    77690049.642       -3917.745          47.000  
 -46117085.506    73493039.240       -3406.859          52.000  
 -48693849.367    59952094.477       -1081.670          57.000  
 -49415939.825    56157465.770         864.972          55.000  
 -49274291.645    56901832.694        1109.072          58.000  
 -46816105.513    69819673.254       -2769.153          49.000  
 -45005097.217    79336569.286        2943.489          48.000  
 20  2 10 13 40  7.0000000  0 12R 5G 1G 6G10G12G13G15G17G19G24G28G32
 -46546328.523   224943181.964        2805.631          46.000  
 -45734882.296    75501531.413       -2030.106          47.000  
 -45396790.393    77278274.936        3521.210          47.000  
 -44637989.087    81265786.394       -2055.048          45.000  
 -47314815.066    67198969.185        3227.295          54.000  
 -45317669.783    77693967.873       -3918.590          47.000  
 -46116437.675    73496446.582       -3407.769          52.000  
 -48693642.728    59953176.060       -1081.628          57.000  
 -49416104.568    56156601.112         864.286          55.000  
 -49274502.468    56900723.994        1108.378          58.000  
 -46815578.971    69822441.911       -2768.325          49.000  
 -45005658.675    79333625.805        2943.606          48.000  
 20  2 10 13 40  8.0000000  0 12R 5G 1G 6G10G12G13G15G17G19G24G28G32
 -46546852.268   224940377.145        2805.219          46.000  
 -45734496.249    75503562.283       -2030.379          47.000  
 -45397459.817    77274753.715        3521.055          47.000  
 -44637598.674    81267841.752       -2055.425          45.000  
 -47315428.704    67195741.711        3226.917          54.000  
 -45316925.843    77697886.106       -3918.916          46.000  
 -46115789.555    73499854.098       -3408.132          52.000  
 -48693435.909    59954258.241       -1081.990          57.000  
 -49416269.738    56155737.176         863.652          55.000  
 -49274713.653    56899615.856        1107.771          58.000  
 -46815052.933    69825210.794       -2768.369          49.000  
 -45006220.453    79330682.712        2943.389          48.000  
 20  2 10 13 40  9.0000000  0 12R 5G 1G 6G10G12G13G15G17G19G24G28G32
 -46547377.528   224937573.007        2804.237          46.000  
 -45734112.027    75505593.801       -2031.270          47.000  
 -45398129.065    77271232.614        3521.006          47.000  
 -44637208.994    81269897.553       -2055.910          45.000  
 -47316042.128    67192514.460        3226.847          54.000  
 -45316181.511    77701804.333       -3918.533          46.000  
 -46115140.927    73503261.790       -3408.091          52.000  
 -48693229.882    59955341.002       -1082.765          57.000  
 -49416434.046    56154873.959         862.903          55.000  
 -49274925.770    56898508.289        1107.259          58.000  
 -46814526.638    69827979.813       -2768.662          49.000  
 -45006781.534    79327740.015        2942.739          48.000  
 20  2 10 13 40 10.0000000  0 12R 5G 1G 6G10G12G13G15G17G19G24G28G32
 -46547902.196   224934769.523        2802.826          46.000  
 -45733726.228    75507625.928       -2032.741          47.000  
 -45398798.964    77267711.631        3521.029          47.000  
 -44636816.503    81271953.815       -2056.558          45.000  
 -47316655.707    67189287.449        3227.072          54.000  
 -45315432.315    77705722.632       -3918.058          46.000  
 -46114491.661    73506669.690       -3407.728          52.000  
 -48693024.497    59956424.325       -1083.785          56.000  
 -49416598.482    56154011.451         862.130          55.000  
 -49275137.487    56897401.294        1106.787          58.000  
 -46813999.297    69830748.990       -2769.461          49.000  
 -45007340.913    79324797.685        2941.794          48.000  
 20  2 10 13 40 11.0000000  0 12R 5G 1G 6G10G12G13G15G17G19G24G28G32
 -46548426.075   224931966.654        2801.741          46.000  
 -45733338.880    75509658.590       -2034.017          47.000  
 -45399468.328    77264190.794        3520.977          47.000  
 -44636424.121    81274010.473       -2056.931          45.000  
 -47317268.972    67186060.724        3227.097          54.000  
 -45314687.363    77709641.010       -3917.688          46.000  
 -46113842.820    73510077.847       -3407.650          52.000  
 -48692818.839    59957508.171       -1084.605          57.000  
 -49416762.101    56153149.654         861.398          55.000  
 -49275347.790    56896294.895        1106.187          58.000  
 -46813472.350    69833518.245       -2769.986          49.000  
 -45007898.143    79321855.672        2941.317          48.000  
 20  2 10 13 40 12.0000000  0 12R 5G 1G 6G10G12G13G15G17G19G24G28G32
 -46548950.318   224929164.394        2801.679          46.000  
 -45732950.026    75511691.765       -2033.744          47.000  
 -45400138.725    77260670.088        3520.705          47.000  
 -44636032.921    81276067.577       -2057.322          45.000  
 -47317883.521    67182834.268        3226.499          54.000  
 -45313942.775    77713559.490       -3918.239          46.000  
 -46113193.917    73513486.248       -3408.298          52.000  
 -48692611.257    59958592.537       -1084.812          57.000  
 -49416925.666    56152288.567         860.694          55.000  
 -49275557.149    56895189.074        1105.611          58.000  
 -46812945.404    69836287.617       -2769.812          49.000  
 -45008459.123    79318913.991        2941.310          48.000  
 20  2 10 13 40 13.0000000  0 12R 5G 1G 6G10G12G13G15G17G19G24G28G32
 -46549475.007   224926362.830        2801.632          46.000  
 -45732561.755    75513725.579       -2033.470          47.000  
 -45400806.988    77257149.491        3520.515          47.000  
 -44635640.113    81278125.114       -2057.503          44.000  
 -47318498.659    67179608.030        3225.878          54.000  
 -45313198.291    77717477.973       -3918.843          46.000  
 -46112544.232    73516894.817       -3408.965          52.000  
 -48692403.686    59959677.474       -1084.977          57.000  
 -49417089.466    56151428.185         860.062          55.000  
 -49275767.270    56894083.827        1104.966          58.000  
 -46812418.392    69839057.113       -2769.215          49.000  
 -45009021.130    79315972.697        2941.315          48.000  
 20  2 10 13 40 14.0000000  0 12R 5G 1G 6G10G12G13G15G17G19G24G28G32
 -46549998.803   224923562.007        2800.994          46.000  
 -45732176.788    75515760.074       -2034.141          47.000  
 -45401476.200    77253629.015        3520.316          47.000  
 -44635245.944    81280183.131       -2058.201          44.000  
 -47319112.604    67176382.004        3225.576          54.000  
 -45312452.580    77721396.441       -3918.813          46.000  
 -46111894.919    73520303.560       -3409.233          52.000  
 -48692195.679    59960763.008       -1085.490          57.000  
 -49417253.294    56150568.530         859.360          55.000  
 -49275977.319    56892979.156        1104.325          58.000  
 -46811890.102    69841826.823       -2769.277          49.000  
 -45009583.634    79313031.800        2941.052          48.000  
 20  2 10 13 40 15.0000000  0 12R 5G 1G 6G10G12G13G15G17G19G24G28G32
 -46550522.174   224920761.861        2799.863          46.000  
 -45731791.372    75517795.190       -2035.331          47.000  
 -45402145.264    77250108.680        3520.157          47.000  
 -44634854.014    81282241.570       -2058.633          45.000  
 -47319727.974    67173156.213        3225.611          54.000  
 -45311707.483    77725314.969       -3918.604          46.000  
 -46111246.727    73523712.509       -3409.089          52.000  
 -48691989.569    59961849.111       -1086.316          57.000  
 -49417416.767    56149709.604         858.557          55.000  
 -49276186.581    56891875.058        1103.809          58.000  
 -46811362.576    69844596.692       -2769.894          49.000  
 -45010141.922    79310091.288        2940.385          48.000  
 20  2 10 13 40 16.0000000  0 12R 5G 1G 6G10G12G13G15G17G19G24G28G32
 -46551045.545   224917962.334        2798.735          46.000  
 -45731402.495    75519830.862       -2036.505          47.000  
 -45402814.794    77246588.445        3520.317          47.000  
 -44634463.325    81284300.436       -2059.061          45.000  
 -47320342.232    67169930.679        3225.679          54.000  
 -45310962.278    77729233.565       -3918.176          46.000  
 -46110596.881    73527121.676       -3408.953          52.000  
 -48691784.745    59962935.749       -1087.178          57.000  
 -49417579.417    56148851.375         857.845          55.000  
 -49276396.630    56890771.539        1103.300          58.000  
 -46810836.138    69847366.658       -2770.374          49.000  
 -45010701.839    79307151.136        2939.708          48.000  
 20  2 10 13 40 17.0000000  0 12R 5G 1G 6G10G12G13G15G17G19G24G28G32
 -46551569.581   224915163.410        2798.151          46.000  
 -45731015.055    75521867.067       -2037.038          47.000  
 -45403485.965    77243068.365        3520.206          47.000  
 -44634072.021    81286359.735       -2059.525          45.000  
 -47320955.603    67166705.422        3225.385          54.000  
 -45310219.501    77733152.244       -3918.235          46.000  
 -46109948.974    73530531.093       -3409.185          52.000  
 -48691578.417    59964022.907       -1087.705          56.000  
 -49417742.201    56147993.859         857.116          55.000  
 -49276607.041    56889668.599        1102.684          57.000  
 -46810308.904    69850136.735       -2770.559          49.000  
 -45011262.214    79304211.299        2939.396          47.000  
 20  2 10 13 40 18.0000000  0 12R 5G 1G 6G10G12G13G15G17G19G24G28G32
 -46552092.796   224912365.148        2797.940          46.000  
 -45730627.295    75523903.892       -2037.071          47.000  
 -45404156.698    77239548.403        3519.877          47.000  
 -44633678.939    81288419.461       -2059.977          45.000  
 -47321568.945    67163480.402        3224.905          54.000  
 -45309473.855    77737070.977       -3918.793          46.000  
 -46109300.277    73533940.705       -3409.706          52.000  
 -48691371.027    59965110.628       -1087.987          57.000  
 -49417904.541    56147137.057         856.453          55.000  
 -49276817.695    56888566.243        1102.056          58.000  
 -46809782.722    69852906.941       -2770.297          50.000  
 -45011824.415    79301271.847        2939.317          47.000  
 20  2 10 13 40 19.0000000  0 12R 5G 1G 6G10G12G13G15G17G19G24G28G32
 -46552616.240   224909567.573        2797.605          46.000  
 -45730238.097    75525941.335       -2037.396          47.000  
 -45404825.759    77236028.559        3519.727          47.000  
 -44633288.677    81290479.617       -2060.249          45.000  
 -47322181.748    67160255.598        3224.448          54.000  
 -45308729.127    77740989.712       -3919.167          46.000  
 -46108652.105    73537350.503       -3410.181          52.000  
 -48691163.673    59966198.915       -1088.385          57.000  
 -49418068.071    56146280.956         855.810          55.000  
 -49277026.739    56887464.474        1101.441          58.000  
 -46809254.216    69855677.296       -2770.083          50.000  
 -45012385.854    79298332.745        2939.235          47.000  
 20  2 10 13 40 20.0000000  0 12R 5G 1G 6G10G12G13G15G17G19G24G28G32
 -46553140.337   224906770.729        2796.635          46.000  
 -45729848.383    75527979.410       -2038.288          47.000  
 -45405496.489    77232508.838        3519.742          47.000  
 -44632892.335    81292540.223       -2060.803          45.000  
 -47322794.578    67157031.015        3224.429          54.000  
 -45307984.539    77744908.444       -3918.859          46.000  
 -46108004.243    73540760.482       -3410.154          52.000  
 -48690956.646    59967287.781       -1089.061          57.000  
 -49418231.290    56145425.592         854.999          55.000  
 -49277235.688    56886363.289        1100.912          58.000  
 -46808726.869    69858447.846       -2770.501          49.000  
 -45012945.020    79295394.054        2938.586          47.000  
 20  2 10 13 40 21.0000000  0 12R 5G 1G 6G10G12G13G15G17G19G24G28G32
 -46553663.563   224903974.494        2796.188          46.000  
 -45729460.904    75530018.036       -2038.549          47.000  
 -45406167.113    77228989.260        3519.515          47.000  
 -44632503.793    81294601.245       -2061.051          45.000  
 -47323408.886    67153806.711        3224.073          55.000  
 -45307242.050    77748827.263       -3919.039          46.000  
 -46107355.279    73544170.712       -3410.556          52.000  
 -48690748.920    59968377.178       -1089.495          57.000  
 -49418394.138    56144570.934         854.274          55.000  
 -49277445.228    56885262.698        1100.298          58.000  
 -46808199.380    69861218.491       -2770.580          50.000  
 -45013502.729    79292455.688        2938.419          47.000  
 20  2 10 13 40 22.0000000  0 12R 5G 1G 6G10G12G13G15G17G19G24G28G32
 -46554185.772   224901178.941        2795.092          46.000  
 -45729072.379    75532057.314       -2039.725          47.000  
 -45406837.341    77225469.792        3519.531          47.000  
 -44632113.843    81296662.731       -2061.614          45.000  
 -47324022.777    67150582.613        3224.129          55.000  
 -45306497.898    77752746.118       -3918.672          46.000  
 -46106707.086    73547581.102       -3410.349          52.000  
 -48690541.493    59969467.154       -1090.406          57.000  
 -49418556.414    56143716.983         853.562          55.000  
 -49277654.745    56884162.689        1099.734          58.000  
 -46807673.416    69863989.304       -2771.073          49.000  
 -45014061.308    79289517.734        2937.620          47.000  
 20  2 10 13 40 23.0000000  0 12R 5G 1G 6G10G12G13G15G17G19G24G28G32
 -46554708.562   224898384.012        2794.455          46.000  
 -45728685.375    75534097.143       -2040.272          47.000  
 -45407507.062    77221950.464        3519.378          46.000  
 -44631720.688    81298724.649       -2062.154          45.000  
 -47324635.462    67147358.797        3223.778          55.000  
 -45305752.803    77756665.029       -3918.758          46.000  
 -46106057.805    73550991.730       -3410.607          52.000  
 -48690333.352    59970557.679       -1090.883          57.000  
 -49418719.182    56142863.748         852.895          55.000  
 -49277864.407    56883063.282        1099.116          58.000  
 -46807146.764    69866760.222       -2771.183          50.000  
 -45014618.448    79286580.105        2937.338          47.000  
 20  2 10 13 40 24.0000000  0 12R 5G 1G 6G10G12G13G15G17G19G24G28G32
 -46555231.933   224895589.732        2794.112          46.000  
 -45728299.062    75536137.574       -2040.629          47.000  
 -45408178.415    77218431.261        3519.112          46.000  
 -44631329.596    81300787.001       -2062.608          44.000  
 -47325249.018    67144135.222        3223.367          55.000  
 -45305008.393    77760583.984       -3918.994          46.000  
 -46105407.927    73554402.563       -3411.003          52.000  
 -48690125.915    59971648.770       -1091.263          57.000  
 -49418881.486    56142011.231         852.146          55.000  
 -49278073.608    56881964.457        1098.529          58.000  
 -46806617.855    69869531.273       -2770.992          50.000  
 -45015176.296    79283642.839        2937.204          48.000  
 20  2 10 13 40 25.0000000  0 12R 5G 1G 6G10G12G13G15G17G19G24G28G32
 -46555754.723   224892796.124        2793.344          46.000  
 -45727910.587    75538178.629       -2041.385          47.000  
 -45408849.801    77214912.182        3518.981          46.000  
 -44630940.884    81302849.797       -2063.128          44.000  
 -47325863.989    67140911.873        3223.208          55.000  
 -45304262.568    77764502.968       -3918.963          46.000  
 -46104757.719    73557813.576       -3411.142          52.000  
 -48689918.753    59972740.425       -1091.933          57.000  
 -49419043.201    56141159.418         851.408          55.000  
 -49278282.110    56880866.221        1097.963          58.000  
 -46806089.752    69872302.501       -2771.379          50.000  
 -45015731.827    79280705.958        2936.766          48.000  
 20  2 10 13 40 26.0000000  0 12R 5G 1G 6G10G12G13G15G17G19G24G28G32
 -46556277.378   224890003.197        2792.732          46.000  
 -45727524.183    75540220.259       -2041.829          47.000  
 -45409517.520    77211393.236        3518.777          46.000  
 -44630550.254    81304913.014       -2063.373          43.000  
 -47326476.057    67137688.780        3222.982          55.000  
 -45303516.311    77768422.028       -3919.248          46.000  
 -46104108.582    73561224.817       -3411.398          52.000  
 -48689710.275    59973832.627       -1092.418          57.000  
 -49419204.905    56140308.323         850.736          55.000  
 -49278491.093    56879768.570        1097.355          58.000  
 -46805562.047    69875073.830       -2771.329          50.000  
 -45016291.053    79277769.455        2936.331          47.000  
 20  2 10 13 40 27.0000000  0 12R 5G 1G 6G10G12G13G15G17G19G24G28G32
 -46556799.432   224887210.958        2792.113          46.000  
 -45727132.161    75542262.500       -2042.231          47.000  
 -45410185.967    77207874.410        3518.688          46.000  
 -44630157.824    81306976.687       -2063.985          43.000  
 -47327088.705    67134465.940        3222.615          55.000  
 -45302772.451    77772341.107       -3919.332          46.000  
 -46103459.374    73564636.265       -3411.667          52.000  
 -48689503.165    59974925.388       -1092.857          57.000  
 -49419366.112    56139457.950         850.024          55.000  
 -49278699.328    56878671.504        1096.808          58.000  
 -46805033.327    69877845.316       -2771.406          50.000  
 -45016848.907    79274833.290        2936.177          47.000  
 20  2 10 13 40 28.0000000  0 12R 5G 1G 6G10G12G13G15G17G19G24G28G32
 -46557321.423   224884419.388        2791.310          46.000  
 -45726743.552    75544305.353       -2043.064          47.000  
 -45410856.849    77204355.697        3518.676          46.000  
 -44629761.918    81309040.788       -2064.381          43.000  
 -47327701.064    67131243.323        3222.501          55.000  
 -45302028.700    77776260.226       -3919.179          46.000  
 -46102809.951    73568047.899       -3411.740          52.000  
 -48689295.096    59976018.716       -1093.561          57.000  
 -49419527.864    56138608.284         849.301          55.000  
 -49278908.240    56877575.003        1096.211          58.000  
 -46804506.706    69880616.943       -2771.686          50.000  
 -45017406.936    79271897.518        2935.646          48.000  
 20  2 10 13 40 29.0000000  0 12R 5G 1G 6G10G12G13G15G17G19G24G28G32
 -46557843.414   224881628.465        2790.484          46.000  
 -45726355.875    75546348.804       -2043.925          47.000  
 -45411526.229    77200837.144        3518.401          46.000  
 -44629367.106    81311105.322       -2064.751          43.000  
 -47328315.055    67128020.959        3222.353          55.000  
 -45301281.130    77780179.385       -3918.986          46.000  
 -46102160.380    73571459.739       -3411.872          52.000  
 -48689086.897    59977112.594       -1094.259          57.000  
 -49419689.741    56137759.330         848.630          55.000  
 -49279117.031    56876479.065        1095.687          58.000  
 -46803979.326    69883388.712       -2771.955          50.000  
 -45017965.987    79268962.095        2935.265          48.000  
 20  2 10 13 40 30.0000000  0 12R 5G 1G 6G10G12G13G15G17G19G24G28G32
 -46558365.260   224878838.154        2789.896          46.000  
 -45725968.852    75548392.800       -2044.336          47.000  
 -45412195.953    77197318.684        3518.339          46.000  
 -44628971.225    81313170.291       -2065.313          44.000  
 -47328928.683    67124798.861        3221.986          55.000  
 -45300533.274    77784098.624       -3919.117          46.000  
 -46101511.530    73574871.808       -3412.150          53.000  
 -48688879.518    59978207.003       -1094.666          56.000  
 -49419852.017    56136911.097         847.881          55.000  
 -49279326.052    56875383.696        1095.057          58.000  
 -46803452.708    69886160.575       -2771.990          50.000  
 -45018524.439    79266027.028        2934.896          48.000  
 20  2 10 13 40 31.0000000  0 12R 5G 1G 6G10G12G13G15G17G19G24G28G32
 -46558887.624   224876048.556        2788.961          46.000  
 -45725580.667    75550437.485       -2045.342          47.000  
 -45412865.612    77193800.352        3518.353          46.000  
 -44628580.331    81315235.707       -2065.800          44.000  
 -47329541.186    67121576.948        3222.066          55.000  
 -45299789.122    77788017.850       -3918.858          46.000  
 -46100861.962    73578284.027       -3411.984          52.000  
 -48688671.019    59979302.010       -1095.512          57.000  
 -49420014.131    56136063.575         847.118          55.000  
 -49279534.275    56874288.929        1094.488          58.000  
 -46802926.267    69888932.640       -2772.442          49.000  
 -45019083.550    79263092.383        2934.271          48.000  
 20  2 10 13 40 32.0000000  0 12R 5G 1G 6G10G12G13G15G17G19G24G28G32
 -46559409.688   224873259.566        2788.137          46.000  
 -45725190.208    75552482.714       -2046.409          47.000  
 -45413534.517    77190282.173        3518.245          46.000  
 -44628189.472    81317301.528       -2066.044          43.000  
 -47330154.806    67118355.329        3221.866          54.000  
 -45299041.813    77791937.170       -3918.739          46.000  
 -46100213.423    73581696.504       -3412.100          52.000  
 -48688463.395    59980397.535       -1096.195          57.000  
 -49420175.302    56135216.767         846.438          55.000  
 -49279742.605    56873194.770        1093.910          58.000  
 -46802398.597    69891704.794       -2772.673          50.000  
 -45019642.982    79260158.064        2933.696          47.000  
 20  2 10 13 40 33.0000000  0 12R 5G 1G 6G10G12G13G15G17G19G24G28G32
 -46559930.507   224870471.229        2787.914          46.000  
 -45724798.211    75554528.458       -2046.096          47.000  
 -45414202.492    77186764.113        3517.982          47.000  
 -44627795.452    81319367.797       -2066.385          43.000  
 -47330768.733    67115133.965        3221.362          54.000  
 -45298294.579    77795856.567       -3919.175          46.000  
 -46099564.396    73585109.211       -3412.715          52.000  
 -48688255.026    59981493.592       -1096.375          56.000  
 -49420335.574    56134370.677         845.711          55.000  
 -49279950.513    56872101.197        1093.264          58.000  
 -46801868.752    69894477.061       -2772.481          50.000  
 -45020202.105    79257224.067        2933.750          47.000  
 20  2 10 13 40 34.0000000  0 12R 5G 1G 6G10G12G13G15G17G19G24G28G32
 -46560451.201   224867683.597        2787.675          46.000  
 -45724408.800    75556574.859       -2046.134          47.000  
 -45414870.508    77183246.182        3517.934          46.000  
 -44627399.162    81321434.501       -2066.868          44.000  
 -47331381.658    67111912.814        3220.827          54.000  
 -45297549.044    77799775.974       -3919.608          46.000  
 -46098915.368    73588522.086       -3413.272          52.000  
 -48688045.122    59982590.228       -1096.669          57.000  
 -49420495.565    56133525.297         845.045          55.000  
 -49280157.853    56871008.192        1092.709          58.000  
 -46801341.118    69897249.492       -2772.150          50.000  
 -45020762.378    79254290.480        2933.599          48.000  
 20  2 10 13 40 35.0000000  0 12R 5G 1G 6G10G12G13G15G17G19G24G28G32
 -46560972.383   224864896.613        2787.472          46.000  
 -45724021.668    75558621.854       -2046.327          47.000  
 -45415542.406    77179728.381        3517.659          46.000  
 -44627007.656    81323501.643       -2067.162          44.000  
 -47331993.704    67108691.922        3220.242          55.000  
 -45296802.278    77803695.433       -3920.224          46.000  
 -46098265.361    73591935.171       -3413.840          52.000  
 -48687835.157    59983687.410       -1096.934          57.000  
 -49420656.446    56132680.632         844.379          55.000  
 -49280365.785    56869915.786        1092.088          58.000  
 -46800814.535    69900022.053       -2771.944          50.000  
 -45021320.570    79251357.241        2933.519          48.000  
 20  2 10 13 40 36.0000000  0 12R 5G 1G 6G10G12G13G15G17G19G24G28G32
 -46561493.222   224862110.314        2787.000          46.000  
 -45723632.314    75560669.468       -2046.678          47.000  
 -45416212.417    77176210.701        3517.491          46.000  
 -44626612.885    81325569.217       -2067.668          44.000  
 -47332605.917    67105471.257        3219.898          55.000  
 -45296055.912    77807614.909       -3920.405          46.000  
 -46097615.592    73595348.437       -3414.100          53.000  
 -48687625.554    59984785.161       -1097.376          56.000  
 -49420817.017    56131836.689         843.671          55.000  
 -49280573.947    56868823.959        1091.438          58.000  
 -46800285.631    69902794.776       -2771.844          49.000  
 -45021880.135    79248424.385        2933.275          47.000  
 20  2 10 13 40 37.0000000  0 12R 5G 1G 6G10G12G13G15G17G19G24G28G32
 -46562014.840   224859324.759        2784.829          46.000  
 -45723240.114    75562717.762       -2049.058          47.000  
 -45416880.969    77172693.133        3517.661          46.000  
 -44626217.699    81327637.234       -2068.231          44.000  
 -47333219.559    67102250.786        3220.572          55.000  
 -45295310.702    77811534.359       -3919.076          46.000  
 -46096967.327    73598761.853       -3413.248          53.000  
 -48687417.194    59985883.509       -1098.925          57.000  
 -49420977.797    56130993.450         842.803          55.000  
 -49280781.299    56867732.686        1091.052          58.000  
 -46799758.219    69905567.689       -2773.409          49.000  
 -45022437.366    79245491.943        2932.051          47.000  
