     2.10           OBSERVATION DATA    M (MIXED)           RINEX VERSION / TYPE
RTKCONV 2.4.2                           20200304 130401 UTC PGM / RUN BY / DATE 
log: C:\Users\Root\Downloads\BINR.bin                       COMMENT             
format: NVS BINR                                            COMMENT             
                                                            MARKER NAME         
                                                            MARKER NUMBER       
                                                            OBSERVER / AGENCY   
                                                            REC # / TYPE / VERS 
                                                            ANT # / TYPE        
  2846208.0587  2200056.7661  5249419.6094                  APPROX POSITION XYZ 
        0.0000        0.0000        0.0000                  ANTENNA: DELTA H/E/N
     1     1                                                WAVELENGTH FACT L1/2
     4    C1    L1    D1    S1                              # / TYPES OF OBSERV 
  2020     2    10    13    37   47.0000000     GPS         TIME OF FIRST OBS   
  2020     2    10    13    40   37.0000000     GPS         TIME OF LAST OBS    
                                                            END OF HEADER       
 20  2 10 13 37 47.0000000  0  1R12
 -49678588.180   136385883.953       -2368.928          53.000  
 20  2 10 13 37 48.0000000  0  1R12
 -49678144.972   136388253.066       -2369.459          53.000  
 20  2 10 13 37 49.0000000  0  1R12
 -49677700.828   136390622.638       -2369.818          53.000  
 20  2 10 13 37 50.0000000  0  1R12
 -49677256.824   136392992.640       -2370.135          53.000  
 20  2 10 13 37 51.0000000  0  1R12
 -49676813.330   136395363.117       -2370.627          53.000  
 20  2 10 13 37 52.0000000  0  1R12
 -49676369.399   136397734.051       -2371.172          53.000  
 20  2 10 13 37 53.0000000  0  1R12
 -49675925.396   136400105.438       -2371.672          53.000  
 20  2 10 13 37 54.0000000  0  1R12
 -49675481.029   136402477.278       -2372.107          53.000  
 20  2 10 13 37 56.0000000  0  1R12
 -49674593.023   136407222.337       -2372.872          53.000  
 20  2 10 13 37 57.0000000  0  1R12
 -49674148.729   136409595.547       -2373.428          53.000  
 20  2 10 13 37 58.0000000  0  1R12
 -49673704.431   136411969.234       -2373.968          53.000  
 20  2 10 13 37 59.0000000  0  1R12
 -49673260.137   136414343.381       -2374.393          53.000  
 20  2 10 13 38  0.0000000  0  1R12
 -49672815.557   136416717.950       -2374.808          53.000  
 20  2 10 13 38  1.0000000  0  1R12
 -49672371.191   136419092.956       -2375.226          53.000  
 20  2 10 13 38  2.0000000  0  1R12
 -49671926.316   136421468.426       -2375.633          53.000  
 20  2 10 13 38  3.0000000  0  1R12
 -49671481.151   136423844.384       -2376.175          53.000  
 20  2 10 13 38  4.0000000  0  1R12
 -49671036.421   136426220.795       -2376.671          53.000  
 20  2 10 13 38  5.0000000  0  1R12
 -49670591.329   136428597.653       -2377.111          53.000  
 20  2 10 13 38  6.0000000  0  1R12
 -49670146.454   136430974.948       -2377.514          53.000  
 20  2 10 13 38  7.0000000  0  1R12
 -49669701.652   136433352.707       -2377.937          53.000  
 20  2 10 13 38  8.0000000  0  1R12
 -49669256.486   136435730.920       -2378.415          53.000  
 20  2 10 13 38  9.0000000  0  1R12
 -49668811.103   136438109.597       -2378.944          53.000  
 20  2 10 13 38 10.0000000  0  1R12
 -49668365.647   136440488.740       -2379.417          53.000  
 20  2 10 13 38 11.0000000  0  1R12
 -49667920.119   136442868.355       -2379.832          53.000  
 20  2 10 13 38 12.0000000  0  1R12
 -49667474.663   136445248.418       -2380.240          53.000  
 20  2 10 13 38 13.0000000  0  1R12
 -49667029.062   136447628.892       -2380.638          53.000  
 20  2 10 13 38 14.0000000  0  1R12
 -49666583.533   136450009.811       -2381.137          53.000  
 20  2 10 13 38 15.0000000  0  1R12
 -49666137.932   136452391.231       -2381.679          53.000  
 20  2 10 13 38 16.0000000  0  1R12
 -49665692.331   136454773.130       -2382.062          53.000  
 20  2 10 13 38 17.0000000  0  1R12
 -49665246.730   136457155.482       -2382.639          53.000  
 20  2 10 13 38 18.0000000  0  1R12
 -49664801.056   136459538.232       -2382.929          53.000  
 20  2 10 13 38 19.0000000  0  1R12
 -49664355.237   136461921.431       -2383.456          53.000  
 20  2 10 13 38 20.0000000  0  1R12
 -49663908.474   136464305.135       -2384.082          53.000  
 20  2 10 13 38 21.0000000  0  1R12
 -49663461.638   136466689.316       -2384.506          53.000  
 20  2 10 13 38 22.0000000  0  1R12
 -49663015.020   136469073.933       -2384.854          53.000  
 20  2 10 13 38 23.0000000  0  1R12
 -49662568.693   136471458.969       -2385.224          53.000  
 20  2 10 13 38 24.0000000  0  1R12
 -49662121.349   136473844.452       -2385.695          53.000  
 20  2 10 13 38 25.0000000  0  1R12
 -49661674.658   136476230.393       -2385.953          53.000  
 20  2 10 13 38 26.0000000  0  1R12
 -49661227.895   136478616.843       -2386.230          53.000  
 20  2 10 13 38 27.0000000  0  1R12
 -49660781.350   136481003.839       -2387.853          53.000  
 20  2 10 13 38 28.0000000  0  1R12
 -49660334.659   136483391.109       -2388.269          53.000  
 20  2 10 13 38 29.0000000  0  1R12
 -49659887.823   136485778.793       -2388.002          53.000  
 20  2 10 13 38 30.0000000  0  1R12
 -49659440.624   136488167.048       -2387.876          53.000  
 20  2 10 13 38 31.0000000  0  1R12
 -49658993.178   136490555.834       -2388.680          53.000  
 20  2 10 13 38 32.0000000  0  1R12
 -49658546.183   136492945.012       -2389.619          53.000  
 20  2 10 13 38 33.0000000  0  1R12
 -49658099.056   136495334.555       -2390.187          53.000  
 20  2 10 13 38 34.0000000  0  1R12
 -49657651.494   136497724.550       -2390.277          53.000  
 20  2 10 13 38 35.0000000  0  1R12
 -49657204.005   136500115.073       -2390.432          53.000  
 20  2 10 13 38 36.0000000  0  1R12
 -49656756.733   136502506.082       -2390.875          53.000  
 20  2 10 13 38 37.0000000  0  1R12
 -49656308.517   136504897.523       -2391.638          53.000  
 20  2 10 13 38 38.0000000  0  1R12
 -49655860.519   136507289.397       -2392.361          53.000  
 20  2 10 13 38 39.0000000  0  1R12
 -49655412.962   136509681.717       -2392.732          53.000  
 20  2 10 13 38 40.0000000  0  1R12
 -49654964.886   136512074.483       -2392.931          53.000  
 20  2 10 13 38 41.0000000  0  1R12
 -49654516.961   136514467.725       -2393.181          53.000  
 20  2 10 13 38 42.0000000  0  1R12
 -49654068.673   136516861.410       -2393.774          53.000  
 20  2 10 13 38 43.0000000  0  1R12
 -49653620.675   136519255.548       -2394.494          53.000  
 20  2 10 13 38 44.0000000  0  1R12
 -49653172.386   136521650.156       -2395.095          53.000  
 20  2 10 13 38 45.0000000  0  1R12
 -49652724.025   136524045.205       -2395.464          53.000  
 20  2 10 13 38 46.0000000  0  1R12
 -49652275.664   136526440.693       -2395.372          53.000  
 20  2 10 13 38 47.0000000  0  1R12
 -49651826.945   136528836.665       -2395.935          53.000  
 20  2 10 13 38 48.0000000  0  1R12
 -49651377.998   136531233.107       -2396.931          53.000  
 20  2 10 13 38 49.0000000  0  1R12
 -49650929.491   136533629.942       -2397.460          53.000  
 20  2 10 13 38 50.0000000  0  1R12
 -49650480.694   136536027.231       -2397.429          53.000  
 20  2 10 13 38 51.0000000  0  1R12
 -49650031.970   136538424.999       -2397.760          53.000  
 20  2 10 13 38 52.0000000  0  1R12
 -49649582.955   136540823.239       -2398.335          53.000  
 20  2 10 13 38 53.0000000  0  1R12
 -49649134.019   136543221.954       -2399.036          53.000  
 20  2 10 13 38 54.0000000  0  1R12
 -49648684.926   136545621.106       -2399.466          53.000  
 20  2 10 13 38 55.0000000  0  1R12
 -49648235.475   136548020.671       -2399.757          53.000  
 20  2 10 13 38 56.0000000  0  1R12
 -49647786.097   136550420.692       -2400.152          53.000  
 20  2 10 13 38 57.0000000  0  1R12
 -49647336.647   136552821.198       -2400.669          53.000  
 20  2 10 13 38 58.0000000  0  1R12
 -49646887.559   136555222.172       -2401.218          53.000  
 20  2 10 13 38 59.0000000  0  1R12
 -49646437.963   136557623.576       -2401.635          53.000  
 20  2 10 13 39  0.0000000  0  1R12
 -49645988.586   136560025.444       -2402.128          53.000  
 20  2 10 13 39  1.0000000  0  1R12
 -49645538.409   136562427.754       -2402.653          53.000  
 20  2 10 13 39  2.0000000  0  1R12
 -49645088.601   136564830.513       -2402.970          53.000  
 20  2 10 13 39  3.0000000  0  1R12
 -49644638.860   136567233.721       -2403.356          53.000  
 20  2 10 13 39  4.0000000  0  1R12
 -49644188.750   136569637.383       -2403.778          53.000  
 20  2 10 13 39  5.0000000  0  1R12
 -49643739.087   136572041.519       -2404.327          53.000  
 20  2 10 13 39  6.0000000  0  1R12
 -49643288.838   136574446.096       -2404.830          53.000  
 20  2 10 13 39  7.0000000  0  1R12
 -49642838.800   136576851.113       -2405.327          53.000  
 20  2 10 13 39  8.0000000  0  1R12
 -49642388.260   136579256.611       -2405.768          53.000  
 20  2 10 13 39  9.0000000  0  1R12
 -49641937.793   136581662.575       -2406.171          53.000  
 20  2 10 13 39 10.0000000  0  1R12
 -49641487.470   136584068.973       -2406.625          53.000  
 20  2 10 13 39 11.0000000  0  1R12
 -49641036.930   136586475.789       -2407.053          53.000  
 20  2 10 13 39 12.0000000  0  1R12
 -49640585.955   136588883.084       -2407.425          53.000  
 20  2 10 13 39 13.0000000  0  1R12
 -49640135.850   136591290.858       -2408.075          53.000  
 20  2 10 13 39 14.0000000  0  1R12
 -49639684.663   136593699.082       -2408.657          53.000  
 20  2 10 13 39 15.0000000  0  1R12
 -49639233.542   136596107.728       -2408.997          53.000  
 20  2 10 13 39 16.0000000  0  1R12
 -49638782.566   136598516.842       -2409.272          53.000  
 20  2 10 13 39 17.0000000  0  1R12
 -49638331.372   136600926.422       -2409.631          53.000  
 20  2 10 13 39 18.0000000  0  1R12
 -49637880.172   136603336.456       -2410.096          53.000  
 20  2 10 13 39 19.0000000  0  1R12
 -49637428.985   136605746.918       -2410.683          53.000  
 20  2 10 13 39 20.0000000  0  1R12
 -49636977.712   136608157.855       -2411.360          53.000  
 20  2 10 13 39 21.0000000  0  1R12
 -49636526.373   136610569.214       -2411.602          53.000  
 20  2 10 13 39 22.0000000  0  1R12
 -49636075.034   136612981.045       -2412.149          53.000  
 20  2 10 13 39 23.0000000  0  1R12
 -49635622.975   136615393.318       -2412.538          53.000  
 20  2 10 13 39 24.0000000  0  1R12
 -49635171.775   136617806.044       -2412.743          53.000  
 20  2 10 13 39 25.0000000  0  1R12
 -49634719.419   136620219.245       -2413.352          53.000  
 20  2 10 13 39 26.0000000  0  1R12
 -49634267.724   136622632.875       -2413.976          53.000  
 20  2 10 13 39 27.0000000  0  1R12
 -49633815.870   136625046.936       -2414.350          53.000  
 20  2 10 13 39 28.0000000  0  1R12
 -49633364.392   136627461.458       -2414.606          53.000  
 20  2 10 13 39 29.0000000  0  1R12
 -49632911.383   136629876.477       -2415.099          53.000  
 20  2 10 13 39 30.0000000  0  1R12
 -49632459.601   136632291.959       -2415.814          53.000  
 20  2 10 13 39 31.0000000  0  1R12
 -49632007.246   136634707.857       -2416.216          53.000  
 20  2 10 13 39 32.0000000  0  1R12
 -49631554.751   136637124.192       -2416.613          53.000  
 20  2 10 13 39 33.0000000  0  1R12
 -49631102.316   136639540.999       -2416.913          53.000  
 20  2 10 13 39 34.0000000  0  1R12
 -49630650.112   136641958.263       -2417.375          53.000  
 20  2 10 13 39 35.0000000  0  1R12
 -49630197.459   136644375.981       -2417.955          53.000  
 20  2 10 13 39 36.0000000  0  1R12
 -49629745.546   136646794.148       -2418.464          53.000  
 20  2 10 13 39 37.0000000  0  1R12
 -49629291.876   136649212.760       -2418.949          53.000  
 20  2 10 13 39 38.0000000  0  1R12
 -49628839.084   136651631.851       -2419.353          53.000  
 20  2 10 13 39 39.0000000  0  1R12
 -49628386.009   136654051.390       -2419.646          53.000  
 20  2 10 13 39 40.0000000  0  1R12
 -49627933.428   136656471.371       -2420.052          53.000  
 20  2 10 13 39 41.0000000  0  1R12
 -49627480.135   136658891.781       -2420.612          53.000  
 20  2 10 13 39 42.0000000  0  1R12
 -49627026.974   136661312.657       -2421.178          53.000  
 20  2 10 13 39 43.0000000  0  1R12
 -49626573.456   136663733.993       -2421.631          53.000  
 20  2 10 13 39 44.0000000  0  1R12
 -49626119.793   136666155.739       -2421.926          53.000  
 20  2 10 13 39 45.0000000  0  1R12
 -49625666.493   136668577.955       -2422.219          53.000  
 20  2 10 13 39 46.0000000  0  1R12
 -49625213.127   136671000.648       -2422.814          53.000  
 20  2 10 13 39 47.0000000  0  1R12
 -49624759.536   136673423.799       -2423.469          53.000  
 20  2 10 13 39 48.0000000  0  1R12
 -49624305.946   136675847.400       -2424.012          53.000  
 20  2 10 13 39 49.0000000  0  1R12
 -49623852.065   136678271.444       -2424.310          53.000  
 20  2 10 13 39 50.0000000  0  1R12
 -49623398.256   136680695.939       -2424.628          53.000  
 20  2 10 13 39 51.0000000  0  1R12
 -49622944.085   136683120.889       -2425.081          53.000  
 20  2 10 13 39 52.0000000  0  1R12
 -49622490.203   136685546.291       -2425.736          53.000  
 20  2 10 13 39 53.0000000  0  1R12
 -49622036.388   136687972.136       -2426.210          53.000  
 20  2 10 13 39 54.0000000  0  1R12
 -49621581.635   136690398.466       -2426.585          53.000  
 20  2 10 13 39 55.0000000  0  1R12
 -49621127.609   136692825.243       -2426.886          53.000  
 20  2 10 13 39 56.0000000  0  1R12
 -49620672.929   136695252.441       -2427.281          53.000  
 20  2 10 13 39 57.0000000  0  1R12
 -49620218.692   136697680.042       -2427.725          53.000  
 20  2 10 13 39 58.0000000  0  1R12
 -49619764.375   136700108.112       -2428.355          53.000  
 20  2 10 13 39 59.0000000  0  1R12
 -49619309.979   136702536.650       -2428.906          53.000  
 20  2 10 13 40  0.0000000  0  1R12
 -49618854.863   136704965.646       -2429.185          53.000  
 20  2 10 13 40  1.0000000  0  1R12
 -49618399.827   136707395.073       -2429.487          53.000  
 20  2 10 13 40  2.0000000  0  1R12
 -49617945.001   136709824.947       -2429.683          53.000  
 20  2 10 13 40  3.0000000  0  1R12
 -49617490.467   136712255.321       -2430.254          53.000  
 20  2 10 13 40  4.0000000  0  1R12
 -49617035.060   136714686.210       -2431.266          53.000  
 20  2 10 13 40  5.0000000  0  1R12
 -49616580.155   136717117.488       -2431.906          53.000  
 20  2 10 13 40  6.0000000  0  1R12
 -49616124.684   136719549.130       -2432.117          53.000  
 20  2 10 13 40  7.0000000  0  1R12
 -49615669.931   136721981.236       -2432.167          53.000  
 20  2 10 13 40  8.0000000  0  1R12
 -49615214.452   136724413.854       -2432.523          53.000  
 20  2 10 13 40  9.0000000  0  1R12
 -49614758.392   136726846.943       -2433.097          53.000  
 20  2 10 13 40 10.0000000  0  1R12
 -49614302.978   136729280.471       -2433.879          53.000  
 20  2 10 13 40 11.0000000  0  1R12
 -49613847.935   136731714.428       -2434.548          53.000  
 20  2 10 13 40 12.0000000  0  1R12
 -49613392.173   136734148.818       -2434.718          53.000  
 20  2 10 13 40 13.0000000  0  1R12
 -49612936.186   136736583.684       -2434.892          53.000  
 20  2 10 13 40 14.0000000  0  1R12
 -49612479.690   136739019.030       -2435.309          53.000  
 20  2 10 13 40 15.0000000  0  1R12
 -49612024.058   136741454.816       -2435.953          53.000  
 20  2 10 13 40 16.0000000  0  1R12
 -49611568.289   136743891.020       -2436.611          53.000  
 20  2 10 13 40 17.0000000  0  1R12
 -49611112.018   136746327.674       -2437.079          53.000  
 20  2 10 13 40 18.0000000  0  1R12
 -49610655.733   136748764.794       -2437.320          53.000  
 20  2 10 13 40 19.0000000  0  1R12
 -49610199.528   136751202.376       -2437.650          53.000  
 20  2 10 13 40 20.0000000  0  1R12
 -49609742.676   136753640.414       -2438.212          53.000  
 20  2 10 13 40 21.0000000  0  1R12
 -49609286.463   136756078.875       -2438.585          53.000  
 20  2 10 13 40 22.0000000  0  1R12
 -49608830.048   136758517.802       -2439.226          53.000  
 20  2 10 13 40 23.0000000  0  1R12
 -49608373.988   136760957.155       -2439.650          53.000  
 20  2 10 13 40 24.0000000  0  1R12
 -49607916.766   136763396.969       -2439.998          53.000  
 20  2 10 13 40 25.0000000  0  1R12
 -49607459.762   136765837.258       -2440.478          53.000  
 20  2 10 13 40 26.0000000  0  1R12
 -49607002.822   136768277.990       -2440.901          53.000  
 20  2 10 13 40 27.0000000  0  1R12
 -49606545.818   136770719.155       -2441.295          53.000  
 20  2 10 13 40 28.0000000  0  1R12
 -49606088.749   136773160.761       -2441.820          53.000  
 20  2 10 13 40 29.0000000  0  1R12
 -49605632.253   136775602.822       -2442.350          53.000  
 20  2 10 13 40 30.0000000  0  1R12
 -49605174.595   136778045.344       -2442.755          53.000  
 20  2 10 13 40 31.0000000  0  1R12
 -49604717.373   136780488.367       -2443.433          53.000  
 20  2 10 13 40 32.0000000  0  1R12
 -49604259.925   136782931.787       -2443.908          53.000  
 20  2 10 13 40 33.0000000  0  1R12
 -49603802.493   136785375.625       -2444.117          53.000  
 20  2 10 13 40 34.0000000  0  1R12
 -49603345.271   136787819.929       -2444.355          52.000  
 20  2 10 13 40 35.0000000  0  1R12
 -49602887.395   136790264.670       -2444.590          53.000  
 20  2 10 13 40 36.0000000  0  1R12
 -49602429.657   136792709.886       -2444.996          52.000  
 20  2 10 13 40 37.0000000  0  1R12
 -49601971.353   136795155.594       -2446.103          53.000  
