     2.10           OBSERVATION DATA    M (MIXED)           RINEX VERSION / TYPE
RTKCONV 2.4.2                           20200616 120336 UTC PGM / RUN BY / DATE 
log: C:\Users\Z\Desktop\glnephexercise\logs\BINR.bin        COMMENT             
format: NVS BINR                                            COMMENT             
                                                            MARKER NAME         
                                                            MARKER NUMBER       
                                                            OBSERVER / AGENCY   
                                                            REC # / TYPE / VERS 
                                                            ANT # / TYPE        
  2846208.0587  2200056.7661  5249419.6094                  APPROX POSITION XYZ 
        0.0000        0.0000        0.0000                  ANTENNA: DELTA H/E/N
     1     1                                                WAVELENGTH FACT L1/2
     4    C1    L1    D1    S1                              # / TYPES OF OBSERV 
  2020     2    10    13    37   47.0000000     GPS         TIME OF FIRST OBS   
  2020     2    10    13    40   37.0000000     GPS         TIME OF LAST OBS    
                                                            END OF HEADER       
 20  2 10 13 37 47.0000000  0  1R 3
 -47141102.211    56529962.726       -3653.781          45.000  
 20  2 10 13 37 48.0000000  0  1R 3
 -47140419.615    56533616.930       -3654.225          45.000  
 20  2 10 13 37 49.0000000  0  1R 3
 -47139737.454    56537271.564       -3654.759          44.000  
 20  2 10 13 37 50.0000000  0  1R 3
 -47139054.712    56540926.595       -3655.334          44.000  
 20  2 10 13 37 51.0000000  0  1R 3
 -47138372.333    56544582.029       -3655.805          44.000  
 20  2 10 13 37 52.0000000  0  1R 3
 -47137689.664    56548237.882       -3656.064          44.000  
 20  2 10 13 37 53.0000000  0  1R 3
 -47137006.632    56551894.165       -3656.363          44.000  
 20  2 10 13 37 54.0000000  0  1R 3
 -47136322.946    56555550.882       -3656.884          44.000  
 20  2 10 13 37 56.0000000  0  1R 3
 -47134956.645    56562865.583       -3657.952          44.000  
 20  2 10 13 37 57.0000000  0  1R 3
 -47134274.139    56566523.563       -3658.192          44.000  
 20  2 10 13 37 58.0000000  0  1R 3
 -47133590.962    56570181.983       -3658.504          44.000  
 20  2 10 13 37 59.0000000  0  1R 3
 -47132906.967    56573840.828       -3658.922          44.000  
 20  2 10 13 38  0.0000000  0  1R 3
 -47132223.572    56577500.079       -3659.388          44.000  
 20  2 10 13 38  1.0000000  0  1R 3
 -47131540.194    56581159.764       -3659.985          44.000  
 20  2 10 13 38  2.0000000  0  1R 3
 -47130856.000    56584819.829       -3660.397          44.000  
 20  2 10 13 38  3.0000000  0  1R 3
 -47130172.950    56588480.320       -3660.743          43.000  
 20  2 10 13 38  4.0000000  0  1R 3
 -47129489.644    56592141.249       -3661.120          43.000  
 20  2 10 13 38  5.0000000  0  1R 3
 -47128805.958    56595802.605       -3661.450          43.000  
 20  2 10 13 38  6.0000000  0  1R 3
 -47128121.546    56599464.394       -3661.887          43.000  
 20  2 10 13 38  7.0000000  0  1R 3
 -47127437.044    56603126.608       -3662.532          43.000  
 20  2 10 13 38  8.0000000  0  1R 3
 -47126752.341    56606789.217       -3662.818          44.000  
 20  2 10 13 38  9.0000000  0  1R 3
 -47126068.599    56610452.243       -3663.249          44.000  
 20  2 10 13 38 10.0000000  0  1R 3
 -47125382.880    56614115.676       -3663.551          44.000  
 20  2 10 13 38 11.0000000  0  1R 3
 -47124698.322    56617779.557       -3664.129          44.000  
 20  2 10 13 38 12.0000000  0  1R 3
 -47124013.457    56621443.856       -3664.599          44.000  
 20  2 10 13 38 13.0000000  0  1R 3
 -47123329.117    56625108.562       -3664.920          44.000  
 20  2 10 13 38 14.0000000  0  1R 3
 -47122644.414    56628773.705       -3665.336          44.000  
 20  2 10 13 38 15.0000000  0  1R 3
 -47121960.074    56632439.242       -3665.610          44.000  
 20  2 10 13 38 16.0000000  0  1R 3
 -47121275.735    56636105.220       -3666.235          44.000  
 20  2 10 13 38 17.0000000  0  1R 3
 -47120590.451    56639771.580       -3666.360          44.000  
 20  2 10 13 38 18.0000000  0  1R 3
 -47119905.692    56643438.387       -3667.052          44.000  
 20  2 10 13 38 19.0000000  0  1R 3
 -47119220.246    56647105.602       -3667.375          44.000  
 20  2 10 13 38 20.0000000  0  1R 3
 -47118535.633    56650773.230       -3667.603          44.000  
 20  2 10 13 38 21.0000000  0  1R 3
 -47117849.824    56654441.305       -3668.112          44.000  
 20  2 10 13 38 22.0000000  0  1R 3
 -47117164.411    56658109.791       -3668.630          44.000  
 20  2 10 13 38 23.0000000  0  1R 3
 -47116479.111    56661778.690       -3669.202          44.000  
 20  2 10 13 38 24.0000000  0  1R 3
 -47115793.771    56665448.013       -3669.508          44.000  
 20  2 10 13 38 25.0000000  0  1R 3
 -47115107.744    56669117.755       -3670.267          44.000  
 20  2 10 13 38 26.0000000  0  1R 3
 -47114421.734    56672787.880       -3671.083          44.000  
 20  2 10 13 38 27.0000000  0  1R 3
 -47113735.886    56676458.271       -3669.512          44.000  
 20  2 10 13 38 28.0000000  0  1R 3
 -47113051.166    56680129.309       -3669.899          44.000  
 20  2 10 13 38 29.0000000  0  1R 3
 -47112364.575    56683800.846       -3671.662          44.000  
 20  2 10 13 38 30.0000000  0  1R 3
 -47111677.927    56687472.663       -3673.209          44.000  
 20  2 10 13 38 31.0000000  0  1R 3
 -47110992.990    56691144.797       -3672.849          44.000  
 20  2 10 13 38 32.0000000  0  1R 3
 -47110306.762    56694817.425       -3672.427          44.000  
 20  2 10 13 38 33.0000000  0  1R 3
 -47109620.841    56698490.503       -3672.571          45.000  
 20  2 10 13 38 34.0000000  0  1R 3
 -47108934.524    56702164.023       -3673.633          45.000  
 20  2 10 13 38 35.0000000  0  1R 3
 -47108248.295    56705837.890       -3674.629          44.000  
 20  2 10 13 38 36.0000000  0  1R 3
 -47107560.833    56709512.150       -3674.968          44.000  
 20  2 10 13 38 37.0000000  0  1R 3
 -47106874.403    56713186.872       -3674.991          45.000  
 20  2 10 13 38 38.0000000  0  1R 3
 -47106187.795    56716862.027       -3674.975          44.000  
 20  2 10 13 38 39.0000000  0  1R 3
 -47105502.673    56720537.609       -3675.346          44.000  
 20  2 10 13 38 40.0000000  0  1R 3
 -47104815.646    56724213.611       -3676.272          44.000  
 20  2 10 13 38 41.0000000  0  1R 3
 -47104128.312    56727889.973       -3676.929          44.000  
 20  2 10 13 38 42.0000000  0  1R 3
 -47103440.720    56731566.746       -3677.183          44.000  
 20  2 10 13 38 43.0000000  0  1R 3
 -47102754.347    56735243.936       -3677.223          44.000  
 20  2 10 13 38 44.0000000  0  1R 3
 -47102067.667    56738921.541       -3677.311          44.000  
 20  2 10 13 38 45.0000000  0  1R 3
 -47101380.858    56742599.618       -3677.924          44.000  
 20  2 10 13 38 46.0000000  0  1R 3
 -47100692.523    56746278.092       -3679.166          44.000  
 20  2 10 13 38 47.0000000  0  1R 3
 -47100005.423    56749956.932       -3679.439          45.000  
 20  2 10 13 38 48.0000000  0  1R 3
 -47099317.089    56753636.178       -3679.063          45.000  
 20  2 10 13 38 49.0000000  0  1R 3
 -47098630.280    56757315.910       -3679.297          45.000  
 20  2 10 13 38 50.0000000  0  1R 3
 -47097943.108    56760996.041       -3680.377          45.000  
 20  2 10 13 38 51.0000000  0  1R 3
 -47097255.427    56764676.564       -3681.076          45.000  
 20  2 10 13 38 52.0000000  0  1R 3
 -47096568.343    56768357.487       -3681.325          45.000  
 20  2 10 13 38 53.0000000  0  1R 3
 -47095880.953    56772038.818       -3681.372          45.000  
 20  2 10 13 38 54.0000000  0  1R 3
 -47095193.692    56775720.576       -3681.719          45.000  
 20  2 10 13 38 55.0000000  0  1R 3
 -47094504.922    56779402.746       -3682.366          45.000  
 20  2 10 13 38 56.0000000  0  1R 3
 -47093816.587    56783085.317       -3682.863          45.000  
 20  2 10 13 38 57.0000000  0  1R 3
 -47093128.979    56786768.304       -3683.265          45.000  
 20  2 10 13 38 58.0000000  0  1R 3
 -47092441.299    56790451.704       -3683.571          45.000  
 20  2 10 13 38 59.0000000  0  1R 3
 -47091752.819    56794135.524       -3684.005          45.000  
 20  2 10 13 39  0.0000000  0  1R 3
 -47091065.138    56797819.758       -3684.367          45.000  
 20  2 10 13 39  1.0000000  0  1R 3
 -47090376.892    56801504.416       -3684.632          45.000  
 20  2 10 13 39  2.0000000  0  1R 3
 -47089687.743    56805189.471       -3685.197          45.000  
 20  2 10 13 39  3.0000000  0  1R 3
 -47088998.828    56808874.919       -3685.794          45.000  
 20  2 10 13 39  4.0000000  0  1R 3
 -47088310.348    56812560.783       -3686.325          45.000  
 20  2 10 13 39  5.0000000  0  1R 3
 -47087622.247    56816247.062       -3686.560          45.000  
 20  2 10 13 39  6.0000000  0  1R 3
 -47086933.752    56819933.759       -3686.808          45.000  
 20  2 10 13 39  7.0000000  0  1R 3
 -47086244.183    56823620.876       -3687.144          45.000  
 20  2 10 13 39  8.0000000  0  1R 3
 -47085555.267    56827308.389       -3687.559          45.000  
 20  2 10 13 39  9.0000000  0  1R 3
 -47084867.005    56830996.327       -3688.139          45.000  
 20  2 10 13 39 10.0000000  0  1R 3
 -47084177.799    56834684.664       -3688.475          45.000  
 20  2 10 13 39 11.0000000  0  1R 3
 -47083488.536    56838373.420       -3688.931          45.000  
 20  2 10 13 39 12.0000000  0  1R 3
 -47082799.533    56842062.537       -3689.545          45.000  
 20  2 10 13 39 13.0000000  0  1R 3
 -47082111.053    56845752.041       -3689.579          44.000  
 20  2 10 13 39 14.0000000  0  1R 3
 -47081422.428    56849442.018       -3689.829          44.000  
 20  2 10 13 39 15.0000000  0  1R 3
 -47080732.714    56853132.428       -3690.378          44.000  
 20  2 10 13 39 16.0000000  0  1R 3
 -47080043.217    56856823.236       -3691.189          44.000  
 20  2 10 13 39 17.0000000  0  1R 3
 -47079354.011    56860514.431       -3691.751          44.000  
 20  2 10 13 39 18.0000000  0  1R 3
 -47078664.660    56864206.022       -3692.061          44.000  
 20  2 10 13 39 19.0000000  0  1R 3
 -47077974.800    56867898.039       -3692.126          44.000  
 20  2 10 13 39 20.0000000  0  1R 3
 -47077285.594    56871590.431       -3692.259          44.000  
 20  2 10 13 39 21.0000000  0  1R 3
 -47076595.168    56875283.307       -3692.964          44.000  
 20  2 10 13 39 22.0000000  0  1R 3
 -47075904.713    56878976.533       -3693.183          44.000  
 20  2 10 13 39 23.0000000  0  1R 3
 -47075214.853    56882670.179       -3693.770          44.000  
 20  2 10 13 39 24.0000000  0  1R 3
 -47074524.049    56886364.241       -3694.628          44.000  
 20  2 10 13 39 25.0000000  0  1R 3
 -47073834.262    56890058.684       -3694.804          44.000  
 20  2 10 13 39 26.0000000  0  1R 3
 -47073144.708    56893753.560       -3694.861          43.000  
 20  2 10 13 39 27.0000000  0  1R 3
 -47072454.833    56897448.880       -3695.414          44.000  
 20  2 10 13 39 28.0000000  0  1R 3
 -47071763.594    56901144.590       -3696.142          44.000  
 20  2 10 13 39 29.0000000  0  1R 3
 -47071073.516    56904840.649       -3696.456          44.000  
 20  2 10 13 39 30.0000000  0  1R 3
 -47070382.857    56908537.124       -3696.471          44.000  
 20  2 10 13 39 31.0000000  0  1R 3
 -47069692.649    56912234.035       -3696.941          43.000  
 20  2 10 13 39 32.0000000  0  1R 3
 -47069002.484    56915931.359       -3697.435          43.000  
 20  2 10 13 39 33.0000000  0  1R 3
 -47068311.375    56919629.085       -3698.021          43.000  
 20  2 10 13 39 34.0000000  0  1R 3
 -47067620.877    56923327.234       -3698.586          43.000  
 20  2 10 13 39 35.0000000  0  1R 3
 -47066930.145    56927025.748       -3698.751          43.000  
 20  2 10 13 39 36.0000000  0  1R 3
 -47066239.051    56930724.665       -3698.965          43.000  
 20  2 10 13 39 37.0000000  0  1R 3
 -47065547.593    56934423.976       -3699.306          43.000  
 20  2 10 13 39 38.0000000  0  1R 3
 -47064856.121    56938123.747       -3700.081          43.000  
 20  2 10 13 39 39.0000000  0  1R 3
 -47064165.477    56941823.929       -3700.531          43.000  
 20  2 10 13 39 40.0000000  0  1R 3
 -47063474.252    56945524.495       -3700.997          43.000  
 20  2 10 13 39 41.0000000  0  1R 3
 -47062782.780    56949225.441       -3701.193          43.000  
 20  2 10 13 39 42.0000000  0  1R 3
 -47062090.959    56952926.809       -3701.585          43.000  
 20  2 10 13 39 43.0000000  0  1R 3
 -47061400.228    56956628.566       -3701.865          43.000  
 20  2 10 13 39 44.0000000  0  1R 3
 -47060708.335    56960330.771       -3702.453          43.000  
 20  2 10 13 39 45.0000000  0  1R 3
 -47060016.223    56964033.373       -3703.154          43.000  
 20  2 10 13 39 46.0000000  0  1R 3
 -47059323.241    56967736.350       -3703.360          43.000  
 20  2 10 13 39 47.0000000  0  1R 3
 -47058631.202    56971439.738       -3703.510          43.000  
 20  2 10 13 39 48.0000000  0  1R 3
 -47057940.398    56975143.516       -3703.544          43.000  
 20  2 10 13 39 49.0000000  0  1R 3
 -47057248.941    56978847.715       -3704.291          43.000  
 20  2 10 13 39 50.0000000  0  1R 3
 -47056556.829    56982552.310       -3704.973          43.000  
 20  2 10 13 39 51.0000000  0  1R 3
 -47055864.500    56986257.290       -3705.260          43.000  
 20  2 10 13 39 52.0000000  0  1R 3
 -47055172.098    56989962.682       -3705.396          43.000  
 20  2 10 13 39 53.0000000  0  1R 3
 -47054478.085    56993668.513       -3705.834          43.000  
 20  2 10 13 39 54.0000000  0  1R 3
 -47053785.842    56997374.719       -3706.433          44.000  
 20  2 10 13 39 55.0000000  0  1R 3
 -47053093.513    57001081.332       -3706.956          44.000  
 20  2 10 13 39 56.0000000  0  1R 3
 -47052401.402    57004788.331       -3707.371          44.000  
 20  2 10 13 39 57.0000000  0  1R 3
 -47051709.145    57008495.736       -3707.712          44.000  
 20  2 10 13 39 58.0000000  0  1R 3
 -47051016.235    57012203.557       -3707.940          44.000  
 20  2 10 13 39 59.0000000  0  1R 3
 -47050322.962    57015911.807       -3708.312          44.000  
 20  2 10 13 40  0.0000000  0  1R 3
 -47049629.543    57019620.449       -3708.798          45.000  
 20  2 10 13 40  1.0000000  0  1R 3
 -47048937.359    57023329.497       -3709.576          45.000  
 20  2 10 13 40  2.0000000  0  1R 3
 -47048244.522    57027038.932       -3710.438          45.000  
 20  2 10 13 40  3.0000000  0  1R 3
 -47047551.684    57030748.696       -3710.654          45.000  
 20  2 10 13 40  4.0000000  0  1R 3
 -47046858.120    57034458.799       -3710.020          45.000  
 20  2 10 13 40  5.0000000  0  1R 3
 -47046165.428    57038169.407       -3709.938          45.000  
 20  2 10 13 40  6.0000000  0  1R 3
 -47045471.937    57041880.524       -3710.727          45.000  
 20  2 10 13 40  7.0000000  0  1R 3
 -47044778.518    57045591.992       -3711.967          45.000  
 20  2 10 13 40  8.0000000  0  1R 3
 -47044085.390    57049303.823       -3712.709          45.000  
 20  2 10 13 40  9.0000000  0  1R 3
 -47043391.173    57053015.997       -3712.790          45.000  
 20  2 10 13 40 10.0000000  0  1R 3
 -47042697.681    57056728.586       -3712.500          45.000  
 20  2 10 13 40 11.0000000  0  1R 3
 -47042004.335    57060441.613       -3712.537          45.000  
 20  2 10 13 40 12.0000000  0  1R 3
 -47041311.207    57064155.072       -3713.387          45.000  
 20  2 10 13 40 13.0000000  0  1R 3
 -47040616.990    57067868.929       -3714.428          45.000  
 20  2 10 13 40 14.0000000  0  1R 3
 -47039923.413    57071583.133       -3714.860          45.000  
 20  2 10 13 40 15.0000000  0  1R 3
 -47039229.063    57075297.704       -3714.809          45.000  
 20  2 10 13 40 16.0000000  0  1R 3
 -47038534.846    57079012.710       -3714.818          45.000  
 20  2 10 13 40 17.0000000  0  1R 3
 -47037840.846    57082728.168       -3715.223          45.000  
 20  2 10 13 40 18.0000000  0  1R 3
 -47037146.688    57086444.011       -3716.077          45.000  
 20  2 10 13 40 19.0000000  0  1R 3
 -47036452.629    57090160.205       -3716.655          45.000  
 20  2 10 13 40 20.0000000  0  1R 3
 -47035757.757    57093876.789       -3716.885          45.000  
 20  2 10 13 40 21.0000000  0  1R 3
 -47035063.672    57097593.816       -3717.449          45.000  
 20  2 10 13 40 22.0000000  0  1R 3
 -47034368.887    57101311.215       -3717.510          45.000  
 20  2 10 13 40 23.0000000  0  1R 3
 -47033674.161    57105029.047       -3717.880          46.000  
 20  2 10 13 40 24.0000000  0  1R 3
 -47032979.943    57108747.259       -3718.466          46.000  
 20  2 10 13 40 25.0000000  0  1R 3
 -47032284.999    57112465.833       -3718.758          46.000  
 20  2 10 13 40 26.0000000  0  1R 3
 -47031590.419    57116184.819       -3719.259          46.000  
 20  2 10 13 40 27.0000000  0  1R 3
 -47030895.693    57119904.210       -3719.690          46.000  
 20  2 10 13 40 28.0000000  0  1R 3
 -47030200.749    57123623.999       -3720.030          46.000  
 20  2 10 13 40 29.0000000  0  1R 3
 -47029506.168    57127344.192       -3720.271          46.000  
 20  2 10 13 40 30.0000000  0  1R 3
 -47028810.716    57131064.812       -3720.848          46.000  
 20  2 10 13 40 31.0000000  0  1R 3
 -47028116.122    57134785.777       -3720.885          46.000  
 20  2 10 13 40 32.0000000  0  1R 3
 -47027420.465    57138507.181       -3721.013          46.000  
 20  2 10 13 40 33.0000000  0  1R 3
 -47026725.448    57142229.015       -3721.925          46.000  
 20  2 10 13 40 34.0000000  0  1R 3
 -47026030.287    57145951.185       -3722.628          46.000  
 20  2 10 13 40 35.0000000  0  1R 3
 -47025334.907    57149673.764       -3723.438          46.000  
 20  2 10 13 40 36.0000000  0  1R 3
 -47024639.006    57153396.717       -3723.982          46.000  
 20  2 10 13 40 37.0000000  0  1R 3
 -47023943.857    57157119.991       -3723.130          46.000  
